CustomerID,Customer Name,City,District,State,OMC,Class of Mkt,Latitude,Longitude,Fiscal Year,Month,MS Vol,HSD Vol
HPC41001998,MS/HSD SUNMAX FUELS,LAKSAR - RETAIL,UT-HARIDWAR,Uttaranchal,HPCL,D2,29.73,78.01,2024,July,27,21
HPC41002000,MS/HSD KRISHNA FILLING STATION HP,UTTARKASHI - RETAIL,UT-UTTARKASHI,Uttaranchal,HPCL,D1,30.75,78.47,2024,July,93,99
HPC41002002,MS /HSD KANDARI FILLING STATION HP,AGRAKHAL - RETAIL,UT-TEHRI-GARHWAL,Uttaranchal,HPCL,D1,30.21,78.33,2024,July,42,42
HPC41002005,MS/HSD KEMPTY FILLING STATION,KEMPTY - RETAIL,UT-TEHRI-GARHWAL,Uttaranchal,HPCL,D2,30.49,78.04,2024,July,42,42
HPC41002007,MS /HSD DOON FUELS HP,DEHRADUN - RETAIL,UT-DEHRADUN,Uttaranchal,HPCL,B,30.33,78.07,2024,July,141,99
HPC41002008,PUKHARAYAN H P,BHADOLI - RETAIL,UP-KANPUR DEHAT,Uttar Pradesh,HPCL,D1,26.25,79.86,2024,July,60,200
HPC41002009,M/S DEV FUELS,PITHORAGARH - RETAIL,UT-PITHORAGARH,Uttaranchal,HPCL,D1,29.58,80.21,2024,July,86,82
HPC41002010,M/s VIJETA FUELS,PUNJAPURA RETAIL - RETAIL,MP-DEWAS,Madhya Pradesh,HPCL,C,22.5,76.26,2024,July,30,22
HPC41002011,M/S SHIV FUELS,THAL - RETAIL,UT-PITHORAGARH,Uttaranchal,HPCL,D2,29.83,80.15,2024,July,9,27
HPC41002012,MSHSD SHREE NATH JI FILLING STATION,ALARI - RETAIL,MP-DEWAS,Madhya Pradesh,HPCL,D1,23.22,76.15,2024,July,31,63
HPC41002013,MS/HSD SHAHEED BISHAN SINGH FUELS,TALIBAZPUR - RETAIL,UT-UDHAM SINGH NGR,Uttaranchal,HPCL,D1,29.13,79.13,2024,July,40,260
HPC41002014,M/s MAA BIJASANI PETROLEUM,KHANDWA - RETAIL,MP-KHANDWA,Madhya Pradesh,HPCL,C,21.66,76.43,2024,July,24,0
HPC41002015,MS/HSD SRI RAM FILLING STATION HP,BAGWAN - RETAIL,UT-TEHRI-GARHWAL,Uttaranchal,HPCL,A,30.23,78.68,2024,July,69,75
HPC41002016,M/s AKANSHA PETROLEUM AND FUELS,TONK KALAN - RETAIL,MP-DEWAS,Madhya Pradesh,HPCL,D1,23.19,76.15,2024,July,9,19
HPC41002017,M/s ASKE FUEL STATION,KANNOD - RETAIL,MP-DEWAS,Madhya Pradesh,HPCL,D1,22.7,76.58,2024,July,21,43
HPC41002018,MS HSD SHREE BABA BALAKNATH FUELS,DHANAURI - RETAIL,UT-UDHAM SINGH NGR,Uttaranchal,HPCL,C,29.26,79.01,2024,July,45,99
HPC41002019,M/s GURJAR FUEL STATION,HARJIPURA - RETAIL,MP-DEWAS,Madhya Pradesh,HPCL,C,22.85,76.5,2024,July,20,20
HPC41002020,PINARAYI FUEL STATION,PINARAYI - RETAIL,KL-CANNANORE,Kerala,HPCL,C,11.81,75.49,2024,July,146,68
HPC41002021,MS/HSD DEVPURAN FUEL STATION,HALDWANI - RETAIL,UT-NAINITAL,Uttaranchal,HPCL,C,29.21,79.48,2024,July,100,43
HPC41002022,M/s SHREE BIHARIJI FUEL CENTER,KASARVAD - RETAIL,MP-KHARGONE,Madhya Pradesh,HPCL,C,22.02,75.74,2024,July,47,23
HPC41002023,SEEPEACE FUELS,KONDOTI - RETAIL,KL-MALLAPURAM,Kerala,HPCL,D1,11.14,75.97,2024,July,100,160
HPC41002024,M/S SHREE PARAMHANS FUELS,GOPAL NAGAR - RETAIL,UT-UDHAM SINGH NGR,Uttaranchal,HPCL,C,29.07,79.25,2024,July,20,42
HPC41002025,M/s SHAKAMBHARI FUELS,MORODHAT - RETAIL,MP-INDORE,Madhya Pradesh,HPCL,D1,22.7,76.1,2024,July,28,91
HPC41002027,M/s BATRA FUELS,MORODHAT - RETAIL,MP-INDORE,Madhya Pradesh,HPCL,D1,22.69,76.07,2024,July,20,60
HPC41002028,M/S MS/HSD DHARAMVEER SINGH AND SON,DHARAM PURA - RETAIL,UT-UDHAM SINGH NGR,Uttaranchal,HPCL,C,29.01,79.38,2024,July,11,15
HPC41002029,AMAN ASSOCIATES,MALAPURAM - RETAIL,KL-MALLAPURAM,Kerala,HPCL,D2,11.04,76.07,2024,July,92,76
HPC41002030,M/s BINJALIYA FUELS AND ENERGY,INDORE-RING RD - RETAIL,MP-INDORE,Madhya Pradesh,HPCL,D1,22.7,75.93,2024,July,64,103
HPC41002031,MS/HSD GANGOTRI FILLING STATION,KANDISAUR - RETAIL,UT-TEHRI-GARHWAL,Uttaranchal,HPCL,D1,30.48,78.36,2024,July,24,24
HPC41002032,M/S LAXMI PETROLEUM,ANJANGAON - RETAIL,MH-SHOLAPUR,Maharastra,HPCL,D2,17.9,75.57,2024,July,50.5,61.5
HPC41002033,M/s HP AUTO FUELS,PUDHUNAGARAM - RETAIL,KL-PALGHAT,Kerala,HPCL,D2,10.68,76.69,2024,July,76,56
HPC41002034,MS GURU KIRPA FILLING STATION HP,DEHRADUN - RETAIL,UT-DEHRADUN,Uttaranchal,HPCL,B,30.33,78,2024,July,195,81
HPC41002035,M/s  JETWAY OIL   FUEL SERVICES HOM,VERNA - RETAIL,GA-SOUTH GOA,Goa,HPCL,-,0,0,2024,July,0,0
HPC41002036,J M PETROLEUM,VALIATHUR - RETAIL,KL-MALLAPURAM,Kerala,HPCL,D2,10.94,75.94,2024,July,72,60
HPC41002038,M/S YASH HP FILLING STATION,PATTI BHAJJAR - RETAIL,UT-UDHAM SINGH NGR,Uttaranchal,HPCL,C,29.25,79.02,2024,July,27,61
HPC41002039,M/S  SANJIVAN FUEL STATION,VADGAON NH-4 LHS - RETAIL,MH-KOLHAPUR,Maharastra,HPCL,D1,16.89,74.3,2024,July,22,26
HPC41002040,FATHIMAS PETROLIUM AGENCY,PAYYOLI - RETAIL,KL-KOZHIKODE,Kerala,HPCL,D1,11.52,75.62,2024,July,32,28
HPC41002041,MS/HSD SOORAJ FILLING STATION,GYANSU - RETAIL,UT-UTTARKASHI,Uttaranchal,HPCL,D1,30.73,78.42,2024,July,45,27
HPC41002042,M/S SILCA FUELS,VERNA - RETAIL,GA-SOUTH GOA,Goa,HPCL,D1,15.35,73.97,2024,July,110,210
HPC41002044,THEYYAMPATTIL PETROLEUM,PUTHANATHANI - RETAIL,KL-MALLAPURAM,Kerala,HPCL,D1,10.93,76.01,2024,July,32,52
HPC41002045,MS/HSD HAMARA PUMP DHARAM S/S,MANGLAUR - RETAIL,UT-HARIDWAR,Uttaranchal,HPCL,C,29.8,77.82,2024,July,24,12
HPC41002047,P K AUTO FUELS,CHELAMBRA - RETAIL,KL-MALLAPURAM,Kerala,HPCL,D1,11.14,75.9,2024,July,61,43
HPC41002049,M/s N S  PETROLEUM,HATTA - RETAIL,MP-DAMOH,Madhya Pradesh,HPCL,D2,24.24,79.81,2024,July,9,23
HPC41002050,M/s ADHOC PRABHU AUTOMOBILES  PATHA,PATHARIYA - RETAIL,MP-DAMOH,Madhya Pradesh,HPCL,-,23.9,79.21,2024,July,30,38
HPC41002051,MS/HSD HAMARA PUMP RAO F/S,SIDCUL - RETAIL,UT-HARIDWAR,Uttaranchal,HPCL,C,29.94,78.05,2024,July,48,378
HPC41002052,M/s SAHIB PETROLEUM,KARUKAPUTHUR - RETAIL,KL-PALGHAT,Kerala,HPCL,C,10.73,76.15,2024,July,48,52
HPC41002053,ARADHYA FUEL STATION,BAIKUNTHPUR - RETAIL,MP-REWA,Madhya Pradesh,HPCL,C,24.82,81.35,2024,July,25,55
HPC41002054,MSHSD DEVBHOOMI FILLING STATION,DEHRADUN - RETAIL,UT-DEHRADUN,Uttaranchal,HPCL,B,30.29,78.02,2024,July,90,55
HPC41002055,SARAVANA ENTERPRISES  HPC DEALER,ERODE - RETAIL,TN-ERODE,Tamil Nadu,HPCL,B,11.35,77.72,2024,July,60,72
HPC41002056,M/s AJAB ANUGRAH SHRI PETROL PUMP,FATEHPUR - RETAIL,MP-DAMOH,Madhya Pradesh,HPCL,D2,24.18,79.52,2024,July,38,34
HPC41002057,NPR PETROLEUM,MUMMUDI-RETAIL,TN-SALEM,Tamil Nadu,HPCL,C,11.57,78.75,2024,July,37,85
HPC41002058,MSHSD ABHINAV FUELS,RISHIKESH - RETAIL,UT-DEHRADUN,Uttaranchal,HPCL,C,30.11,78.29,2024,July,100,275
HPC41002061,PATLATH FUELS,PARAPPA - RETAIL,KL-KASARGOD,Kerala,HPCL,C,12.37,75.25,2024,July,44,64
HPC41002062,NATIONAL FUEL,HALDWANI - RETAIL,UT-NAINITAL,Uttaranchal,HPCL,C,29.21,79.52,2024,July,82,13
HPC41002063,NARVADA FILLING STATION,MAUGANJ - RETAIL,MP-REWA,Madhya Pradesh,HPCL,C,24.64,81.86,2024,July,26,38
HPC41002064,M/s N S FUELS,POLPULLY - RETAIL,KL-PALGHAT,Kerala,HPCL,C,10.73,76.72,2024,July,68,28
HPC41002065,M/S OM SAI FUELS,KUNWARPUR- SISSAYA - R,UT-UDHAM SINGH NGR,Uttaranchal,HPCL,D1,28.88,79.67,2024,July,30,70
HPC41002066,HARSHAD PETROLEUM,SEONI - RETAIL,MP-SEONI,Madhya Pradesh,HPCL,D2,22.1,79.59,2024,July,18,46
HPC41002067,M/s SREE LAKSHMI FUEL SERVICE STATI,KORATEGIRI - RETAIL,KA-TUMKUR,Karnataka,HPCL,C,13.54,77.08,2024,July,50,54
HPC41002068,SHRI SAI JYOTI FUELS,AMARWARA - RETAIL,MP-CHHINDWARA,Madhya Pradesh,HPCL,C,22.18,79.27,2024,July,28,28
HPC41002070,MSHSD ABHI SERVICE STATION,DHAMOULI URF KHARWALA - RETAIL,UT-HARIDWAR,Uttaranchal,HPCL,D1,29.82,78.13,2024,July,41,35
HPC41002071,M/s LAKSHMIDEVI FUELS,ARAKERE - RETAIL,KA-MANDYA,Karnataka,HPCL,C,12.46,76.84,2024,July,20,28
HPC41002072,M/s HANS FILLING STATION,INDORE-RING RD - RETAIL,MP-INDORE,Madhya Pradesh,HPCL,D1,22.69,75.93,2024,July,120,256
HPC41002073,MULLERIA PETROLEUM,MULLERIA - RETAIL,KL-KASARGOD,Kerala,HPCL,D2,12.54,75.16,2024,July,56,52
HPC41002074,MSHSD DEEWAN FILLING STATION,PREMPUR LOSHYANI - RET,UT-NAINITAL,Uttaranchal,HPCL,C,29.19,79.47,2024,July,30,14
HPC41002075,MS HSD MTB FUEL STATION,BANGALORE OML - RETAIL,KA-BANGALORE-URB,Karnataka,HPCL,D1,13.02,77.71,2024,July,169,172
HPC41002076,M/s GURU KRIPA FUEL STATION,AKYA UMKHEDA - RETAIL,MP-MANDASAUR,Madhya Pradesh,HPCL,D2,23.84,75.1,2024,July,21,51
HPC41002077,MSHSD SANJEEV FUELS,GUMANIWALA - RETAIL,UT-DEHRADUN,Uttaranchal,HPCL,C,30.07,78.24,2024,July,140,210
HPC41002079,MSHSD VINAYAK FUEL STATION,ALIRAJPUR - RETAIL,MP-ALIRAJPUR,Madhya Pradesh,HPCL,D2,22.35,74.25,2024,July,13,37
HPC41002081,MEGHA FUELS,NAYATTUPARA - RETAIL,KL-CANNANORE,Kerala,HPCL,C,11.97,75.52,2024,July,28,44
HPC41002082,VIJAY HP FUEL CENTRE,NAWARKHERA - RETAIL,UT-NAINITAL,Uttaranchal,HPCL,D1,29.22,79.55,2024,July,30,50
HPC41002083,M/s ADHOC SANWARIYA FILLING CENTER,PIPALRAWAN - RETAIL,MP-DEWAS,Madhya Pradesh,HPCL,C,23.15,76.46,2024,July,22,6
HPC41002084,M/s SRI HANUMAN SERVICE STATION,CHIKBALAPUR - RETAIL,KA-CHIKKABALLAPURA,Karnataka,HPCL,C,13.37,77.73,2024,July,20,88
HPC41002085,M/S HARMILAP AUTO SERVICE,KICHHA - RETAIL,UT-UDHAM SINGH NGR,Uttaranchal,HPCL,C,28.89,79.48,2024,July,19,41
HPC41002086,M/s ANADI FUELS,DEWAS - RETAIL,MP-DEWAS,Madhya Pradesh,HPCL,D1,22.95,76.07,2024,July,9,75
HPC41002088,M/s PRABHU FUEL STATION,SIRA - RETAIL,KA-TUMKUR,Karnataka,HPCL,C,13.73,76.91,2024,July,65,61
HPC41002090,MS HSD PALLIYAL PETROLEUM,TARUVANA - RETAIL,KL-WYNAAD,Kerala,HPCL,C,11.74,75.99,2024,July,68,76
HPC41002091,MS/HSD SANJEEDA FILLING STATION,KALIYAR - RETAIL,UT-HARIDWAR,Uttaranchal,HPCL,D2,29.94,77.95,2024,July,85,83
HPC41002092,M/s ADWITIYA FILLING CENTRE,"JP-JAYA NAGAR, BANGALORE - RETAIL",KA-BANGALORE-URB,Karnataka,HPCL,A,12.91,77.58,2024,July,150,164
HPC41002094,MS/HSD AGARWAL FILLING STATION,JWALAPUR - RETAIL,UT-HARIDWAR,Uttaranchal,HPCL,C,29.91,78.1,2024,July,91,21
HPC41002096,M/s THIMMARAYASWAMY ENTERPRISES,"BANNERGHATTA, BANGALORE - RETAIL",KA-BANGALORE-URB,Karnataka,HPCL,A,12.87,77.62,2024,July,114,84
HPC41002098,MS/HSD OM ADITYA FILLING STATION,DOIWAL - RETAIL,UT-DEHRADUN,Uttaranchal,HPCL,C,30.17,78.12,2024,July,63,33
HPC41002099,M/s SHREE HP PETROLEUMS,"CHANDRA LAYOUT-KENGERI, B'LORE - RETAIL",KA-BANGALORE-URB,Karnataka,HPCL,A,12.95,77.48,2024,July,109,113
HPC41002100,GRACE FUELS,IRRITY - RETAIL,KL-CANNANORE,Kerala,HPCL,D2,12.01,75.69,2024,July,40,41
HPC41002101,SHRI GANESH SERVICE STATION,ROORKEE - RETAIL,UT-HARIDWAR,Uttaranchal,HPCL,C,29.86,78.01,2024,July,30,54
HPC41002103,M/s LN FILLING STATION,"BASWESWARNAGAR, BANGALORE - RETAIL",KA-BANGALORE-URB,Karnataka,HPCL,A,12.98,77.52,2024,July,133,71
HPC41002106,MSHSD SHIV SHAKTI FILLING STATION,DEHRADUN - RETAIL,UT-DEHRADUN,Uttaranchal,HPCL,D2,30.4,78.08,2024,July,130,110
HPC41002107,M/s NN   SONS FUEL STATION,"OLD AIRPORT, BANGALORE - RETAIL",KA-BANGALORE-URB,Karnataka,HPCL,A,12.96,77.71,2024,July,445,229
HPC41002108,P P FUELS,TELICHERRY - RETAIL,KL-CANNANORE,Kerala,HPCL,C,11.75,75.49,2024,July,16,8
HPC41002111,M/s SATHEESH FUEL STATION,MAGADI - RETAIL,KA-RAMNAGARA,Karnataka,HPCL,D2,13.06,77.27,2024,July,39,71
HPC41002112,MANGALA FUELS,CALICUT - RETAIL,KL-KOZHIKODE,Kerala,HPCL,C,11.27,75.84,2024,July,120,112
HPC41002113,MSHSD RAPIDS FILLING STATION AND AU,DEHRADUN - RETAIL,UT-DEHRADUN,Uttaranchal,HPCL,B,30.32,78.03,2024,July,110,50
HPC41002114,M/s CBW ENTERPRISE,BIDARAHALLI - RETAIL,KA-BANGALORE-URB,Karnataka,HPCL,A,13.09,77.64,2024,July,96,123
HPC41002115,THOTTUMUKKAM FUELS,THOTTUMUKKAM - RETAIL,KL-KOZHIKODE,Kerala,HPCL,C,11.29,76.07,2024,July,44,52
HPC41002117,M/s MG Petrol Station,"HENNUR, BANGALORE - RETAIL",KA-BANGALORE-URB,Karnataka,HPCL,A,13.04,77.64,2024,July,88,58
HPC41002118,G M PETROLEUMS,IRULAM - RETAIL,KL-WYNAAD,Kerala,HPCL,C,11.75,76.2,2024,July,76,56
HPC41002119,HIMALAYA HIGHWAY FILLING STATION,ALMORA - RETAIL,UT-ALMORA,Uttaranchal,HPCL,D1,29.62,79.63,2024,July,63,45
HPC41002120,M/s SREE CHOWDESWARI FUEL STATION,"CHANDRA LAYOUT-KENGERI, B'LORE - RETAIL",KA-BANGALORE-URB,Karnataka,HPCL,D1,12.87,77.44,2024,July,56,302
HPC41002121,M/s SAKTHI FUELS,ALOOR - RETAIL,KL-TRICHUR,Kerala,HPCL,D2,10.34,76.3,2024,July,76,80
HPC41002122,MS/HSD JAI ISHT DEV FILLING STATION,DANIYA - RETAIL,UT-ALMORA,Uttaranchal,HPCL,D1,29.57,79.92,2024,July,24,36
HPC41002123,M/s  AYYENCHIRA PETRO PARK,MADAIKONAM - RETAIL,KL-TRICHUR,Kerala,HPCL,C,10.38,76.24,2024,July,76,44
HPC41002124,NARAYANI FILLING STATION PALMA,RAGUNATHPUR - RETAIL,WB-PURULIA,West Bengal,HPCL,D2,23.5,86.58,2024,July,57,131
HPC41002125,M/s H ANJANAPPA AND SONS FUEL POINT,NEELAMANGALA - RETAIL,KA-BANGALORE-RUR,Karnataka,HPCL,C,13.09,77.42,2024,July,124,117
HPC41002126,LAKSHAY FILLING STATION,KALIYAR - RETAIL,UT-HARIDWAR,Uttaranchal,HPCL,C,29.95,77.96,2024,July,36,12
HPC41002127,APM FUELS,ODUVALLY - RETAIL,KL-CANNANORE,Kerala,HPCL,C,12.1,75.4,2024,July,20,28
HPC41002128,ADHOC SHREE BALAJEE F S  PAKURIA,PAKURIA - RETAIL,JH-PAKUR,Jharkhand,HPCL,C,24.33,87.65,2024,July,52.5,25.5
HPC41002129,MSHSD THANO FILLING STATION,RAMNAGAR DANDA - RETAIL,UT-DEHRADUN,Uttaranchal,HPCL,C,30.23,78.2,2024,July,51,33
HPC41002130,M/s NETHRAVATHI FUEL STATION,"CHANDRA LAYOUT-KENGERI, B'LORE - RETAIL",KA-BANGALORE-URB,Karnataka,HPCL,A,12.94,77.52,2024,July,71,89
HPC41002132,SHIVAM FUEL STATION,SALTORA - RETAIL,WB-BANKURA,West Bengal,HPCL,C,23.56,86.91,2024,July,20,52
HPC41002133,JAI DHOULINAG FILLING STATION,MUSYOLI - RETAIL,UT-BAGESHWAR,Uttaranchal,HPCL,D1,29.82,79.87,2024,July,17,31
HPC41002134,M/s THE MANCHAIAHS FUEL LOUNGE,PEENYA(BANGALORE) - RETAIL,KA-BANGALORE-URB,Karnataka,HPCL,A,13.02,77.52,2024,July,240,240
HPC41002135,MSHSD SHUBHAM FILLING STATION,GHANSALI - RETAIL,UT-TEHRI-GARHWAL,Uttaranchal,HPCL,C,30.43,78.65,2024,July,27,45
HPC41002136,BERKA PETROLEUM AGENCIES,NELLIKETTA - RETAIL,KL-KASARGOD,Kerala,HPCL,D2,12.54,75.07,2024,July,36,28
HPC41002137,M/s PRAGATHI FUEL STATION,BUDIGERE - RETAIL,KA-BANGALORE-RUR,Karnataka,HPCL,A,13.13,77.74,2024,July,27,161
HPC41002138,M/S OMKANTA FUELS BANDUAN,BANDUAN - RETAIL,WB-PURULIA,West Bengal,HPCL,C,22.88,86.51,2024,July,26,90
HPC41002139,BALA DEVI FILLING STATION,MANGLAUR - RETAIL,UT-HARIDWAR,Uttaranchal,HPCL,C,29.8,77.92,2024,July,45,75
HPC41002140,PAVITHRA FUELS,KURUMATHUR - RETAIL,KL-CANNANORE,Kerala,HPCL,D2,12.04,75.42,2024,July,30,70
HPC41002141,M/s J K FUEL STATION,BIDARAHALLI - RETAIL,KA-BANGALORE-URB,Karnataka,HPCL,A,13.06,77.65,2024,July,378,260
HPC41002142,M/s R S FILLING STATION,MAJHEON - RETAIL,JH-GARHWA,Jharkhand,HPCL,C,24.48,83.74,2024,July,26.5,57.5
HPC41002143,NAVODAYA FILLING STATION,SIDCUL - RETAIL,UT-HARIDWAR,Uttaranchal,HPCL,C,29.97,78.05,2024,July,90,54
HPC41002144,M/s CNV ENTERPRISES,WHITEFIELD - RETAIL,KA-BANGALORE-URB,Karnataka,HPCL,A,12.97,77.73,2024,July,388,250
HPC41002147,YADAV FILLING STATION,JWALAPUR - RETAIL,UT-HARIDWAR,Uttaranchal,HPCL,C,29.9,78.09,2024,July,75,33
HPC41002148,M/s CHITHRA SERVICE STATION,"KR PURAM, BANGALORE - RETAIL",KA-BANGALORE-URB,Karnataka,HPCL,A,12.97,77.77,2024,July,215,163
HPC41002151,MS HSD HARILEELA HIGHWAY,KATHGODAM - RETAIL,UT-NAINITAL,Uttaranchal,HPCL,D1,29.26,79.54,2024,July,32,16
HPC41002154,M/s K C V FUEL STATION,DEVANAHALLI - RETAIL,KA-BANGALORE-RUR,Karnataka,HPCL,D2,13.3,77.7,2024,July,47,159
HPC41002156,MS/HSD SHREE FILLING STATION,DEHRADUN - RETAIL,UT-DEHRADUN,Uttaranchal,HPCL,B,30.28,78.04,2024,July,189,49
HPC41002158,M/s SHARADA PRAKASH PETROLEUM,YELEHANKA - RETAIL,KA-BANGALORE-URB,Karnataka,HPCL,A,13.08,77.55,2024,July,174,118
HPC41002160,MS/HSD GANPATI FILLING STATION,ROORKEE - RETAIL,UT-HARIDWAR,Uttaranchal,HPCL,C,29.86,77.88,2024,July,75,9
HPC41002162,M/s KALGUDI FUELS,KEELARA - RETAIL,KA-MANDYA,Karnataka,HPCL,C,12.59,76.94,2024,July,24,24
HPC41002164,M/s VH NAGABHUSHAN REDDY FUEL STATI,LINGADAHALLI - RETAIL,KA-TUMKUR,Karnataka,HPCL,D2,14.18,77.05,2024,July,58,54
HPC41002170,MSHSD FARHA SERVICE STATION,MALDANGA - RETAIL,WB-PURBA BARDHAMAN,West Bengal,HPCL,C,23.43,88.16,2024,July,27,145
HPC41002171,MS/ HSD RENUKAMBA FUELS,BANGALORE CENTRAL - RETAIL,KA-BANGALORE-URB,Karnataka,HPCL,A,12.86,77.66,2024,July,195,225
HPC41002174,M/s SUNSHINE FUEL STATION,RAJANKUNTE - RETAIL,KA-BANGALORE-URB,Karnataka,HPCL,C,13.18,77.52,2024,July,35,107
HPC41002179,M/s SRI SAI RANGANATHA FUEL STATION,"CHANDRA LAYOUT-KENGERI, B'LORE - RETAIL",KA-BANGALORE-URB,Karnataka,HPCL,A,12.93,77.5,2024,July,63,47
HPC41002182,M/s Sri Maruthi Fuel Station,HOSKOTE - RETAIL,KA-BANGALORE-RUR,Karnataka,HPCL,D2,13.12,77.82,2024,July,30,232
HPC41002185,MS/HSD SRI VENKATESHWARA FUEL STATI,PAVAGADA - RETAIL,KA-TUMKUR,Karnataka,HPCL,D2,14.11,77.31,2024,July,20,40
HPC41002186,RANISAYAR SERVICE STATION,ASANSOL - RETAIL,WB-PASCHIM BARDHAMAN,West Bengal,HPCL,B,23.69,86.89,2024,July,46,70
HPC41002188,MSHSD SABHYA FUELS,NAGAVALLI - RETAIL,KA-TUMKUR,Karnataka,HPCL,D2,13.25,77.08,2024,July,45,95
HPC41002191,MSHSD MATHA FUELS,NITTUR - RETAIL,KA-TUMKUR,Karnataka,HPCL,D2,13.31,76.86,2024,July,24,48
HPC41002195,M/s KOTILINGESHWARA FUEL POINT,BETHAMANGALA - RETAIL,KA-KOLAR,Karnataka,HPCL,D2,13,78.3,2024,July,33,53
HPC41002197,BALAJI FUEL STATION CHHANDAR,BELIATORE - RETAIL,WB-BANKURA,West Bengal,HPCL,D2,23.31,87.27,2024,July,24,120
HPC41002198,M/s KSS ENTERPRISES,SRINIVASAPURA - RETAIL,KA-KOLAR,Karnataka,HPCL,D2,13.44,78.2,2024,July,17,141
HPC41002201,M/s S M PETRO AGENCY,"MAGADI ROAD, BANGALORE - RETAIL",KA-BANGALORE-URB,Karnataka,HPCL,A,12.99,77.49,2024,July,210,107
HPC41002204,M/s SHREE MARUTHI PETRO AGENCY,"CHANDRA LAYOUT-KENGERI, B'LORE - RETAIL",KA-BANGALORE-URB,Karnataka,HPCL,A,12.97,77.49,2024,July,95,65
HPC41002206,M/s SANAND FUEL STATION,"YESHWANTAPUR, BANGALAORE(RETL) - RETAIL",KA-BANGALORE-URB,Karnataka,HPCL,A,13.05,77.51,2024,July,122,70
HPC41002207,SWAPAN FILLING STATION RAMSAGAR,ONDA - RETAIL,WB-BANKURA,West Bengal,HPCL,D1,23.11,87.26,2024,July,43,125
HPC41002208,M/s  SMR FUEL POINT,JANGAMKOTE CROSS - RETAIL,KA-CHIKKABALLAPURA,Karnataka,HPCL,D2,13.25,77.92,2024,July,49,83
HPC41002211,M/s  SUNSHINE FUEL PARK,BETHAMANGALA - RETAIL,KA-KOLAR,Karnataka,HPCL,D2,13,78.34,2024,July,36,96
HPC41002213,MSHSD RAJATHADRI FUELING STATION,TUMKUR - RETAIL,KA-TUMKUR,Karnataka,HPCL,C,13.31,77.15,2024,July,45,115
HPC41002215,MSHSD SHREE SUMUKHA FUEL STATION,CHIKKANAYAKANAHALLI - RETAIL,KA-TUMKUR,Karnataka,HPCL,C,13.43,76.63,2024,July,40,80
HPC41002217,MSHSD SRI T C Narasimhaya   Sons,BYRANAHALLI - RETAIL,KA-TUMKUR,Karnataka,HPCL,C,13.82,77.31,2024,July,36,36
HPC41002218,M/S DEBJISHU SERVICE STATION,CHASMODE - RETAIL,WB-PURULIA,West Bengal,HPCL,D2,23.41,86.17,2024,July,36,72
HPC41002219,MSHSD SRI RAGHAVENDRA FUELS,PAVAGADA - RETAIL,KA-TUMKUR,Karnataka,HPCL,C,14.07,77.07,2024,July,55,65
HPC41002221,MAA RAKSHAKALI FILLING STATION,AUSGRAM - RETAIL,WB-PURBA BARDHAMAN,West Bengal,HPCL,D2,23.44,87.66,2024,July,29,63
HPC41002222,M/s MAHALAKSHMI SERVICE STATION,RAMOHALLI - RETAIL,KA-BANGALORE-URB,Karnataka,HPCL,A,12.89,77.44,2024,July,65,215
HPC41002223,R S P  FILLING CENTRE,DURGAPUR - RETAIL,WB-PASCHIM BARDHAMAN,West Bengal,HPCL,C,23.6,87.32,2024,July,33,47
HPC41002224,M/s SAI SHREYATHE FUELS,NEELAMANGALA - RETAIL,KA-BANGALORE-RUR,Karnataka,HPCL,D1,13.09,77.4,2024,July,105,95
HPC41002225,MSHSD JANANI FUEL PARK,TURUVEKERE - RETAIL,KA-TUMKUR,Karnataka,HPCL,C,13.17,76.55,2024,July,52,116
HPC41002226,MAJI AUTO SERVICE RUNAKURIA GHAT,KAPISHTHA - RETAIL,WB-PASCHIM BARDHAMAN,West Bengal,HPCL,C,23.85,87,2024,July,15,83
HPC41002227,M/s SREE SAI VENKAT FUEL PARK,"TIRUMALSETTYHALLI, BANGALORE - RETAIL",KA-BANGALORE-RUR,Karnataka,HPCL,C,12.95,77.8,2024,July,74,142
HPC41002228,ADHOC KAPISTHA AUTO SERVICE,SALANPUR - RETAIL,WB-PASCHIM BARDHAMAN,West Bengal,HPCL,D1,23.74,86.89,2024,July,0,0
HPC41002229,M/s SHREE VARDHAN FUEL PARK,BANGALORE CENTRAL - RETAIL,KA-BANGALORE-URB,Karnataka,HPCL,A,13.01,77.66,2024,July,135,65
HPC41002230,MSHSD SHRI NARAYAN FILLING STATION,MALAMBA - RETAIL,WB-PURBA BARDHAMAN,West Bengal,HPCL,D2,23.35,88.14,2024,July,28,92
HPC41002231,BANKURA FILLING STATION,BANKURA - RETAIL,WB-BANKURA,West Bengal,HPCL,C,23.25,87.03,2024,July,75,53
HPC41002232,M/s S H PETROLEUM  SHEAKHALA,SEAKALA - RETAIL,WB-HOOGHLY,West Bengal,HPCL,D2,22.76,88.18,2024,July,42,80
HPC41002233,MSHSD SOM AUTO FUELS,BUDBUD OML - RETAIL,WB-PURBA BARDHAMAN,West Bengal,HPCL,D1,23.39,87.59,2024,July,5,107
HPC41002234,M/s RUNA FUEL PUMP BALAGARH,INCHURA - RETAIL,WB-HOOGHLY,West Bengal,HPCL,D2,23.18,88.42,2024,July,61,101
HPC41002235,M/S RAGHUNATH JEE FUEL PUMP,ASANSOL - RETAIL,WB-PASCHIM BARDHAMAN,West Bengal,HPCL,B,23.7,86.87,2024,July,30,26
HPC41002236,JEEN MATA AUTOMOBILES,ASANSOL - RETAIL,WB-PASCHIM BARDHAMAN,West Bengal,HPCL,B,23.73,86.81,2024,July,16,32
HPC41002238,M/S MAA ALOKA AUTOMOBILES  GOPALPUR,SARBARI MORE - RETAIL,WB-PURULIA,West Bengal,HPCL,C,23.66,86.79,2024,July,20,28
HPC41002240,M/s ADRIJA H P STATION   BRINDABANP,ARAMBAGH - RETAIL,WB-HOOGHLY,West Bengal,HPCL,C,22.86,87.79,2024,July,24,24
HPC41002242,M/S SRI BISHNU AUTO SERVICE  UKHRA,ONDAL - RETAIL,WB-PASCHIM BARDHAMAN,West Bengal,HPCL,C,23.65,87.23,2024,July,60,48
HPC41002336,MS/HSD LAXMI FILLING STATION,DEHRADUN - RETAIL,UT-DEHRADUN,Uttaranchal,HPCL,B,30.3,78,2024,July,135,65
HPC41002338,MS/HSD K M FILLING STATION,JASPUR - RETAIL,UT-UDHAM SINGH NGR,Uttaranchal,HPCL,C,29.26,78.82,2024,July,45,40
HPC41002340,TRIVENI SAI PETROLEUM,ROORKEE - RETAIL,UT-HARIDWAR,Uttaranchal,HPCL,C,29.88,77.88,2024,July,67.5,22.5
HPC41002342,SRI KRISHNA FILLING STATION,JWALAPUR - RETAIL,UT-HARIDWAR,Uttaranchal,HPCL,C,29.89,78.1,2024,July,33,15
HPC41002345,MS/HSD SHREE SHIV SHAKTI SERVICE ST,DEHRADUN - RETAIL,UT-DEHRADUN,Uttaranchal,HPCL,B,30.31,78.04,2024,July,75,21
HPC41002347,MS/HSD SUNDAR FILLING STATION,"MALETHI,SATPULI-RETAIL",UT-PAURI GARHWAL,Uttaranchal,HPCL,D1,29.92,78.72,2024,July,52,92
HPC41002349,MS HSD PARIHAR FILLING STATION,MUSYOLI - RETAIL,UT-BAGESHWAR,Uttaranchal,HPCL,D2,29.84,79.76,2024,July,48,72
HPC41002351,MS HSD CHANDRA SHEKHAR SERVICE STAT,BELPARAO - RETAIL,UT-NAINITAL,Uttaranchal,HPCL,D2,29.39,79.29,2024,July,28,32
HPC41002353,SAMAY SINGH FILLING STATION,BHADRABAD - RETAIL,UT-HARIDWAR,Uttaranchal,HPCL,D2,29.92,78.03,2024,July,54,30
HPC41002356,ASTITVA FILLING STATION,UTTARKASHI - RETAIL,UT-UTTARKASHI,Uttaranchal,HPCL,D1,30.8,78.17,2024,July,37,51
HPC41002358,MS/HSD HP CENTER  SECTOR 62,NOIDA - RETAIL,UP-GAUTAM BUDH NAGAR,Uttar Pradesh,HPCL,B,0,0,2024,July,506.44,188.78
HPC41002360,MS/HSD HP CENTER  SECTOR 82,NOIDA - RETAIL,UP-GAUTAM BUDH NAGAR,Uttar Pradesh,HPCL,B,0,0,2024,July,650.06,308.88
HPC41002363,MS/HSD SHRI JAMBHESHWAR AUTOCARE,SISONA - RETAIL,UP-MUZAFFARNAGAR,Uttar Pradesh,HPCL,D1,29.53,77.74,2024,July,40,44
HPC41002365,SRI GAYATRI FILLING CENTRE,ROHANA KALAN - RETAIL,UP-MUZAFFARNAGAR,Uttar Pradesh,HPCL,D2,29.55,77.69,2024,July,29,79
HPC41002367,MS HSD HAMARA PUMP GURANA UJJAWAL,GURANA - RETAIL,UP-BAGHPAT,Uttar Pradesh,HPCL,C,29.08,77.3,2024,July,30,26
HPC41002369,MS HSD TIRUPATI BALAJI FILLING STAT,BAHERI - RETAIL,UP-BAREILLY,Uttar Pradesh,HPCL,D2,28.73,79.49,2024,July,32,92
HPC41002371,SHIV KAILASH FUEL POINT,BHUNI - RETAIL,UP-MEERUT,Uttar Pradesh,HPCL,D2,29.14,77.56,2024,July,22,22
HPC41002376,HAMARA PUMP GANPATI FUEL SORON,SHAHPUR - RETAIL,UP-MUZAFFARNAGAR,Uttar Pradesh,HPCL,C,29.34,77.54,2024,July,40,44
HPC41002378,MS/HSD HAMARA PUMP SAFIYABAD LOTI,VILLAGE SAFIYABAD - RE,UP-MEERUT,Uttar Pradesh,HPCL,C,28.82,77.85,2024,July,16,20
HPC41002380,M/s N C ROY FILLING STATION  LALGAR,LALGARH - RETAIL,WB-JHARGRAM,West Bengal,HPCL,C,22.59,87.05,2024,July,8,172
HPC41002382,SHRI SAI HP,SIKANDRABAD - RETAIL,UP-BULANDSHAHR,Uttar Pradesh,HPCL,D1,28.44,77.74,2024,July,28,44
HPC41002383,M/S ADHOC RAMBHAGAT HARIPRASAD DURG,BURDWAN - RETAIL,WB-PURBA BARDHAMAN,West Bengal,HPCL,C,23.26,87.86,2024,July,0,0
HPC41002384,MS/HSD TEJA SERVICE STATION,TIRUPATHI - RETAIL,AP-TIRUPATI,Andhra Pradesh (New),HPCL,D1,13.63,79.48,2024,July,63,71
HPC41002385,ADHIRAJ HP,GREATER NOIDA (WEST) -,UP-GAUTAM BUDH NAGAR,Uttar Pradesh,HPCL,B,28.56,77.45,2024,July,370,207
HPC41002386,M/S ALISHA FUEL STATION,BURDWAN-OML - RETAIL,WB-PURBA BARDHAMAN,West Bengal,HPCL,D1,23.22,87.89,2024,July,114,238
HPC41002388,QUALITY FUELS,MUZAFARNAGAR OML - RET,UP-MUZAFFARNAGAR,Uttar Pradesh,HPCL,D2,29.43,77.75,2024,July,10,70
HPC41002389,M/s JEMIX HP STATION   KALACHARA,KRISHNARAMPUR - RETAIL,WB-HOOGHLY,West Bengal,HPCL,D2,22.72,88.22,2024,July,54,42
HPC41002390,M/s SRI LAXMI NARASIMHA SWAMY FUELS,KODUMUR - RETAIL,AP-KURNOOL,Andhra Pradesh (New),HPCL,C,15.68,77.78,2024,July,42,52
HPC41002391,HAMARA PUMP   MCS DANKAUR,DANKAUR - RETAIL,UP-GAUTAM BUDH NAGAR,Uttar Pradesh,HPCL,C,28.36,77.57,2024,July,100,100
HPC41002392,SATYAJIT FILLING STATION,MANGURIA PURULIA OML - RETAIL,WB-PURULIA,West Bengal,HPCL,C,23.41,86.32,2024,July,5,15
HPC41002394,M/s K K K FUEL STATION,SARGUR - RETAIL,KA-CHAMARAJNAGAR,Karnataka,HPCL,D2,11.94,77.01,2024,July,43,69
HPC41002395,P K AUTOMOBILE,PURURULIA OML - RETAIL,WB-PURULIA,West Bengal,HPCL,C,23.53,86.52,2024,July,24,28
HPC41002396,MS/HSD HIGHWAY PETROCAR,JASRAT PUR - RETAIL,UP-MEERUT,Uttar Pradesh,HPCL,D1,29.17,77.72,2024,July,56,40
HPC41002398,M/s M F  FUELS,"JALAHALLI, BANGALORE - RETAIL",KA-BANGALORE-URB,Karnataka,HPCL,A,13.12,77.48,2024,July,35,25
HPC41002400,M/S ALINAGAR FILLING STATION,BHATAR - RETAIL,WB-PURBA BARDHAMAN,West Bengal,HPCL,D2,23.42,87.9,2024,July,28,112
HPC41002401,SHRI BALAJI HP,GUNNOR - RETAIL,UP-SAMBHAL,Uttar Pradesh,HPCL,D1,28.27,78.42,2024,July,36,60
HPC41002402,M/s  RSR FUEL STATION,GAURIBIDANUR - RETAIL,KA-CHIKKABALLAPURA,Karnataka,HPCL,D2,13.71,77.5,2024,July,70.5,201.5
HPC41002403,M/s SIVA PRASAD PETRO FUELS,PEDDATEKUR - RETAIL,AP-KURNOOL,Andhra Pradesh (New),HPCL,D1,15.72,78,2024,July,40,76
HPC41002404,RATANPUR FILLING CENTRE,DAMODARPUR - RETAIL,WB-BANKURA,West Bengal,HPCL,D2,23.11,87.07,2024,July,58,98
HPC41002406,PATHED AUTO FUELS,MIRZAPUR - RETAIL,UP-SAHARANPUR,Uttar Pradesh,HPCL,D2,30.26,77.63,2024,July,34,50
HPC41002407,M/s BISHNUPRIYA FILLING STATION,MUKTICHAK - RETAIL,WB-PASCHIM MEDINIPUR,West Bengal,HPCL,D2,22.52,87.43,2024,July,32,136
HPC41002409,M/s SRI ANNAPURNESHWARI FILLING STA,BANGALORE CENTRAL - RETAIL,KA-BANGALORE-URB,Karnataka,HPCL,A,12.88,77.65,2024,July,154,189
HPC41002410,M/S RADHIKA HP FILLING STATION,DEBAI - RETAIL,UP-BULANDSHAHR,Uttar Pradesh,HPCL,D2,28.23,78.2,2024,July,60,212
HPC41002411,M/S PADMABATI FILLING STATION  GUSK,AUSGRAM - RETAIL,WB-PURBA BARDHAMAN,West Bengal,HPCL,D1,23.51,87.74,2024,July,42,162
HPC41002412,M/s SHIVA SAI FILLING STATION  BELU,RAMAPURAM - RETAIL,AP-NANDYAL,Andhra Pradesh (New),HPCL,D1,15.11,78.12,2024,July,23,113
HPC41002413,M/s GRR FUELS,MANDYA - RETAIL,KA-MANDYA,Karnataka,HPCL,A,12.52,76.9,2024,July,138,44
HPC41002414,M/s NASHIBPUR SERVICE STATION   DIA,SHEORAPHULLI - RETAIL,WB-HOOGHLY,West Bengal,HPCL,D2,22.81,88.27,2024,July,63,121
HPC41002415,M/S HAMARA PUMP ALIGANJ,ALIGANJ II - RETAIL,UP-BAREILLY,Uttar Pradesh,HPCL,C,28.34,79.26,2024,July,38,70
HPC41002417,MSHSD KOUSTUBHA FUELS,TUMKUR - RETAIL,KA-TUMKUR,Karnataka,HPCL,C,13.32,77.11,2024,July,48,48
HPC41002418,M/s BABA DAMODAR FILLING STATION,KHIRPAI - RETAIL,WB-PASCHIM MEDINIPUR,West Bengal,HPCL,D2,22.74,87.6,2024,July,8,88
HPC41002419,KALSIYA FILLING STATION,BEHAT - RETAIL,UP-SAHARANPUR,Uttar Pradesh,HPCL,D2,30.14,77.62,2024,July,68,100
HPC41002420,M/s V R FILLING STATION  BUGGA,TUMMALAPENTA - RETAIL,AP-NANDYAL,Andhra Pradesh (New),HPCL,D1,15.01,78.04,2024,July,4,8
HPC41002421,M/s BHAVANI FUELS,"CHANDAPURA, BANGALORE - RETAIL",KA-BANGALORE-URB,Karnataka,HPCL,A,12.8,77.72,2024,July,29,341
HPC41002422,M/s MAA DWARIKACHANDI FILLING STATI,DWARHATTA - RETAIL,WB-HOOGHLY,West Bengal,HPCL,C,22.79,88.07,2024,July,36,60
HPC41002423,M/s  SRI BALAJI FUEL INN,ROYACHOTI - RETAIL,AP-ANNAMAYYA,Andhra Pradesh (New),HPCL,D2,14.06,78.74,2024,July,51,37
HPC41002424,SONY FILLING STATION,MIRZAPUR KAKRAUA - RETAIL,UP-SAMBHAL,Uttar Pradesh,HPCL,D2,28.66,78.42,2024,July,100,248
HPC41002425,M/s JHA FUELS  KHARAGPUR,KHARAGPUR - RETAIL,WB-PASCHIM MEDINIPUR,West Bengal,HPCL,C,22.34,87.34,2024,July,88,20
HPC41002426,M/s  SHREE MAHAKALIKAMBA PETROLEUM,CHIKBALAPUR - RETAIL,KA-CHIKKABALLAPURA,Karnataka,HPCL,D2,13.4,77.7,2024,July,62,86
HPC41002427,M/s SRI MANIKANTA FILLING STATION,PEDDACHAPPALI - RETAIL,AP-CUDDAPAH,Andhra Pradesh (New),HPCL,C,14.56,78.63,2024,July,0,0
HPC41002428,M/s KALIMATA SERVICE STATION,DAKSHIN DALHARA - RETAIL,WB-PURBA MEDINIPUR,West Bengal,HPCL,D1,22.25,87.9,2024,July,28,476
HPC41002429,M/S SHRI JAGESWAR HP,CHADPUR - RETAIL,UP-BAREILLY,Uttar Pradesh,HPCL,D2,28.25,79.35,2024,July,37.5,112.5
HPC41002430,M/s SRI GANDI ANJANEYA FILLING STAT,CHAKARAPETA - RETAIL,AP-CUDDAPAH,Andhra Pradesh (New),HPCL,C,14.26,78.5,2024,July,17,33
HPC41002432,M/s MITALI FILLINGS  GUYADAHA,GUYADAHA - RETAIL,WB-PASCHIM MEDINIPUR,West Bengal,HPCL,D2,22.74,87.4,2024,July,48,132
HPC41002433,M/s SRI BALAJI FILLING STATION,PORUMAMILA - RETAIL,AP-CUDDAPAH,Andhra Pradesh (New),HPCL,D1,15,78.99,2024,July,59,96
HPC41002435,M/S HAMARA PUMP PATWAI,PATWAI - RETAIL,UP-RAMPUR,Uttar Pradesh,HPCL,C,28.68,79.03,2024,July,33,75
HPC41002438,MSHSD SWAYAMJYOTHI FILLING STATION,TUMKUR - RETAIL,KA-TUMKUR,Karnataka,HPCL,C,13.35,77.13,2024,July,164,128
HPC41002439,MADHAV FILLING STATION,NOORPUR - RETAIL,UP-BIJNOR,Uttar Pradesh,HPCL,D2,29.17,78.39,2024,July,19,33
HPC41002440,M/s SRI SAI TIRUMALA FUELS    RAJAM,RAJAMPET - RETAIL,AP-ANNAMAYYA,Andhra Pradesh (New),HPCL,D2,14.2,79.16,2024,July,97,209
HPC41002441,SRI SHARADA JAYARAMAPPA FUEL STATIO,TUMKUR - RETAIL,KA-TUMKUR,Karnataka,HPCL,C,13.31,77.12,2024,July,30,58
HPC41002443,M/S HAMARA PUMP SRISAI BAHERI,BAHERI - RETAIL,UP-BAREILLY,Uttar Pradesh,HPCL,C,28.79,79.52,2024,July,32,28
HPC41002445,MSHSD HVG FUEL STATION,KUNIGAL - RETAIL,KA-TUMKUR,Karnataka,HPCL,D2,12.94,77.03,2024,July,30,72
HPC41002447,SURABHI AUTOMOBILES,MORADABAD - RETAIL,UP-MORADABAD,Uttar Pradesh,HPCL,B,28.81,78.79,2024,July,50,90
HPC41002448,M/s MAHAMATHA FUEL STATION,CHAMARAJA NAGAR - RETAIL,KA-CHAMARAJNAGAR,Karnataka,HPCL,D2,12.05,76.95,2024,July,16,32
HPC41002450,M/s B BASHEER KHAN FUEL STATION ray,ROYACHOTI - RETAIL,AP-ANNAMAYYA,Andhra Pradesh (New),HPCL,C,14.06,78.75,2024,July,59,31
HPC41002451,M/s BANASHANKARI FUEL HUB,BANGALORE CENTRAL - RETAIL,KA-BANGALORE-URB,Karnataka,HPCL,A,12.88,77.53,2024,July,32,38
HPC41002452,MS/HSD MANGALAM HP,KASNA - RETAIL,UP-GAUTAM BUDH NAGAR,Uttar Pradesh,HPCL,C,28.44,77.5,2024,July,140,300
HPC41002456,M/s  SRI SIDDESHWARA SWAMY FUEL STA,MALUR - RETAIL,KA-KOLAR,Karnataka,HPCL,D1,12.93,77.85,2024,July,35,177
HPC41002457,HASAN FILLING STATION,MAHMOODPUR MALI - RETAIL,UP-MORADABAD,Uttar Pradesh,HPCL,C,28.67,78.67,2024,July,76,68
HPC41002458,M/S SAI SAHITHI FILLING STATION SOM,SOMALA - RETAIL,AP-CHITTOOR,Andhra Pradesh (New),HPCL,D2,13.47,78.81,2024,July,21,33
HPC41002460,A S  HP FILLING STATION,THAKURDWARA - RETAIL,UP-MORADABAD,Uttar Pradesh,HPCL,D2,29.19,78.87,2024,July,35,63
HPC41002461,M/s N S PETROLEUMS,BIDARAHALLI - RETAIL,KA-BANGALORE-URB,Karnataka,HPCL,A,13.05,77.66,2024,July,53,33
HPC41002464,MS/HSD D V Fuels,SHAMLI - RETAIL,UP-SHAMLI,Uttar Pradesh,HPCL,D2,29.46,77.33,2024,July,69,71
HPC41002466,M/s DINESH FILLING STATION URUTUR,URUTUR - RETAIL,AP-CUDDAPAH,Andhra Pradesh (New),HPCL,C,14.57,78.51,2024,July,15,35
HPC41002469,M/s NEHRU SERVICE CENTRE,"YESHWANTAPUR, BANGALAORE(RETL) - RETAIL",KA-BANGALORE-URB,Karnataka,HPCL,A,13,77.52,2024,July,170,120
HPC41002472,HAYAT FILLING STATION,CHANDPUR - RETAIL,UP-BIJNOR,Uttar Pradesh,HPCL,D2,29.12,78.28,2024,July,36,132
HPC41002474,M/S HARSHNI PETRO PARK,TIRUPATHI - RETAIL,AP-TIRUPATI,Andhra Pradesh (New),HPCL,D2,13.62,79.49,2024,July,178,300
HPC41002475,M/s  HNS FUEL STATION,HUNEGAL VILLAGE - RETAIL,KA-CHIKKABALLAPURA,Karnataka,HPCL,D1,13.5,77.75,2024,July,102,668
HPC41002476,KING HP FUEL STATION,TAHARPUR - RETAIL,UP-MORADABAD,Uttar Pradesh,HPCL,C,28.74,78.73,2024,July,50,590
HPC41002478,M/s MARUTI FUEL STATION,RAGHUNATHPURA - RETAIL,KA-RAMNAGARA,Karnataka,HPCL,D1,13.05,77.14,2024,July,52,134
HPC41002479,M/s MAHENDRA FILLING STATION SANKAR,CUDAPAH CITY - RETAIL,AP-CUDDAPAH,Andhra Pradesh (New),HPCL,C,14.48,78.84,2024,July,15,4
HPC41002481,IMDAD HP FILLING STATION,RALI CHAUHAN - RETAIL,UP-MEERUT,Uttar Pradesh,HPCL,C,28.98,77.86,2024,July,44,44
HPC41002482,MSHSD SHREE SAI SHIVA FUEL STATION,BYALADAKERE - RETAIL,KA-TUMKUR,Karnataka,HPCL,D1,13,76.94,2024,July,41,165
HPC41002483,MS/HSD VENKATA SAI FILLING STATION,TIRUPATHI - RETAIL,AP-TIRUPATI,Andhra Pradesh (New),HPCL,C,13.65,79.44,2024,July,151,135
HPC41002485,SLAS FUEL DOOR DELIVERY PVT LTD,BANGALORE CENTRAL - RETAIL,KA-BANGALORE-URB,Karnataka,HPCL,-,0,0,2024,July,0,12
HPC41002486,MS/HSD D R  SHARMA FUEL CENTRE,KHIWANI - RETAIL,UP-MEERUT,Uttar Pradesh,HPCL,C,29.11,77.46,2024,July,0,0
HPC41002487,Ms SRI SAI LAKSHMI NARASIMHA SWAMY,UTTAKONDA - RETAIL,AP-NANDYAL,Andhra Pradesh (New),HPCL,C,15.29,77.86,2024,July,0,0
HPC41002489,M/s GOWRISHANKAR FUEL STATION,"KR PURAM, BANGALORE - RETAIL",KA-BANGALORE-URB,Karnataka,HPCL,A,13.03,77.66,2024,July,145,63
HPC41002490,SHRI NANAK HP FILLING STATION,AGWANPUR - RETAIL,UP-MORADABAD,Uttar Pradesh,HPCL,C,28.93,78.72,2024,July,40,44
HPC41002493,M/s TANK THUMBI FUELS PRIVATE LIMIT,BANGALORE CENTRAL - RETAIL,KA-BANGALORE-URB,Karnataka,HPCL,-,0,0,2024,July,0,0
HPC41002496,M/s ZIPFUEL SERVICES PRIVATE LIMITE,BANGALORE CENTRAL - RETAIL,KA-BANGALORE-URB,Karnataka,HPCL,-,0,0,2024,July,0,18
HPC41002498,MAHADEV FILLING STATION HP,THANABHAWAN - RETAIL,UP-SHAMLI,Uttar Pradesh,HPCL,D2,29.57,77.41,2024,July,101,235
HPC41002499,M/S MSHSD MOHAN NP ENTERPRISES,BANGALORE CENTRAL - RETAIL,KA-BANGALORE-URB,Karnataka,HPCL,A,12.99,77.68,2024,July,275,163
HPC41002504,M/s HP RAJA NAGESHWAR FS  Kundla,KUNDLA - RETAIL,RJ-JHALAWAR,Rajasthan,HPCL,C,23.96,75.5,2024,July,0,0
HPC41002505,MSHSD ADHOC SAPTHAGIRI FUEL PARK,SRINIVASAPURA - RETAIL,KA-KOLAR,Karnataka,HPCL,D1,13.34,78.21,2024,July,0,0
HPC41002508,M/s SRI NIMISHAMBAHA FUEL PARK,MADDUR - RETAIL,KA-MANDYA,Karnataka,HPCL,D1,12.57,77.01,2024,July,45,241
HPC41002519,M/s LAND MARK FUEL STATION,BANGARPET - RETAIL,KA-KOLAR,Karnataka,HPCL,D2,12.99,78.22,2024,July,114,152
HPC41002522,M/s  NIKHILESH FUEL PARK,GUDIBANDA - RETAIL,KA-CHIKKABALLAPURA,Karnataka,HPCL,D2,13.67,77.78,2024,July,12,36
HPC41002525,M/s DANI PETROLEUM,RAMNAGARAM - RETAIL,KA-RAMNAGARA,Karnataka,HPCL,C,12.72,77.28,2024,July,68,24
HPC41002528,M/s MYSORE PUTTAMMA FUEL PARK,BANDIHOLE - RETAIL,KA-MANDYA,Karnataka,HPCL,C,12.66,76.41,2024,July,28,32
HPC41002531,M/s MVR Filling Center,KOLAR - RETAIL,KA-KOLAR,Karnataka,HPCL,D2,13.23,78.16,2024,July,30,70
HPC41002535,M/s SHASHI FUEL STATION,YELEHANKA - RETAIL,KA-BANGALORE-URB,Karnataka,HPCL,A,13.09,77.54,2024,July,144,73
HPC41002538,M/s SRI RANGANATHA SWAMY FUEL SERVI,TYAMAGONDLU - RETAIL,KA-BANGALORE-RUR,Karnataka,HPCL,D1,13.16,77.32,2024,July,85,295
HPC41002541,M/s ADHOC SRI GANAPATHI SERVICE STA,MAGADI - RETAIL,KA-RAMNAGARA,Karnataka,HPCL,D2,12.95,77.23,2024,July,0,0
HPC41002544,M/s MATHRUSHREE FUEL STATION,KOWDHALLI - RETAIL,KA-CHAMARAJNAGAR,Karnataka,HPCL,D2,12.07,77.43,2024,July,20,40
HPC41002547,M/s ADHOC BALAJIS SIRA FUELS   SERV,CHIKBALAPUR - RETAIL,KA-CHIKKABALLAPURA,Karnataka,HPCL,C,13.41,77.73,2024,July,0,0
HPC41002551,M/s SRINIVASA KALYANA FUEL STATION,"BANNERGHATTA, BANGALORE - RETAIL",KA-BANGALORE-URB,Karnataka,HPCL,A,12.72,77.7,2024,July,111,126
HPC41002553,M/s Garuda Petroleum,"CHANDAPURA, BANGALORE - RETAIL",KA-BANGALORE-URB,Karnataka,HPCL,A,12.87,77.68,2024,July,133,105
HPC41002556,MS HSD ADHOC JANANI FUEL PARK,CHIKKANAYAKANAHALLI - RETAIL,KA-TUMKUR,Karnataka,HPCL,D2,13.51,76.58,2024,July,0,0
HPC41002558,M/s Geethaa Fuel Service Station,"HENNUR, BANGALORE - RETAIL",KA-BANGALORE-URB,Karnataka,HPCL,A,13.15,77.68,2024,July,84,226
HPC41002634,SIVA SAI FILLING STATION,CHUKKALUR - RETAIL,AP-ANANTAPUR,Andhra Pradesh (New),HPCL,D2,14.94,77.99,2024,July,29,69
HPC41002637,LAKSHMI NARASIMHA FUELS,NANDIVARAGAM - RETAIL,AP-NANDYAL,Andhra Pradesh (New),HPCL,C,15.42,78.32,2024,July,12,36
HPC41002666,M/s MALA SERVICE STATION  Aklera,AKLERA - RETAIL,RJ-JHALAWAR,Rajasthan,HPCL,D2,24.41,76.58,2024,July,70,70
HPC41002669,M/s MAMTA FILLING STATION  GHODI TE,DANPUR - RETAIL,RJ-BANSAWARA,Rajasthan,HPCL,C,23.63,74.67,2024,July,55,25
HPC41002672,M/s PATEL FILLING STATION,UDAIPUR II - RETAIL,RJ-UDAIPUR,Rajasthan,HPCL,B,24.55,73.75,2024,July,25,35
HPC41002675,M/s KARNI PETROLEUM BAGHERA,KEKRI - RETAIL,RJ-AJMER,Rajasthan,HPCL,C,26.02,75.29,2024,July,30,270
HPC41002680,M/s SHRIMAT PETRO DIESEL PUMP  MOR,MOR - RETAIL,RJ-TONK,Rajasthan,HPCL,D2,26.15,75.42,2024,July,16,8
HPC41002683,M/s B K PETROL PUMP  PRANHERA,KEKRI - RETAIL,RJ-AJMER,Rajasthan,HPCL,D2,25.89,75.11,2024,July,16,32
HPC41002686,M/s RIDDHIMA FILLING STATION  NAHAR,NAHAR GARH - RETAIL,RJ-BARAN,Rajasthan,HPCL,B,24.93,76.84,2024,July,30,30
HPC41002689,M/s SHRI BHAIRAW PETROLEUM  NATHADI,NATHRI - RETAIL,RJ-TONK,Rajasthan,HPCL,C,26.27,75.72,2024,July,25,35
HPC41002692,JAI AMBE PETROLEUM,GADHI - RETAIL,RJ-BANSAWARA,Rajasthan,HPCL,C,23.5,74.18,2024,July,37,75
HPC41002695,M/s VARDHMAN PETROLEUM,SALUMBAR - RETAIL,RJ-UDAIPUR,Rajasthan,HPCL,D2,24.17,74.05,2024,July,27,45
HPC41002698,M/s GARG PETROLEUM  LAVA,LAWA - RETAIL,RJ-TONK,Rajasthan,HPCL,C,26.35,75.57,2024,July,25,35
HPC41002701,M/s SHRI CHARBHUJA FILLINGSTATION B,BORADA - RETAIL,RJ-AJMER,Rajasthan,HPCL,D2,26.19,75.04,2024,July,13,25
HPC41002704,M/s SHANTI SAINI FILLING STATION BE,BEAWAR - RETAIL,RJ-BEAWAR,Rajasthan,HPCL,C,26.11,74.32,2024,July,96,64
HPC41002707,M/s SHIVASHAKTHI FUELS STATION,"CHANDRA LAYOUT-KENGERI, B'LORE - RETAIL",KA-BANGALORE-URB,Karnataka,HPCL,A,13.01,77.47,2024,July,60,64
HPC41002709,SHRI SHIV GANPATI PETROLEUM,KAPASAN - RETAIL,RJ-CHITORGARH,Rajasthan,HPCL,C,24.8,74.32,2024,July,24,24
HPC41002711,M/s JAYASHREE FUEL PARK,JAKKANAHALLI - RETAIL,KA-MANDYA,Karnataka,HPCL,D2,12.68,76.65,2024,July,24,36
HPC41002713,MSHSD SHRI RAMDOOT FILLING STATION,SIMILIYA - RETAIL,RJ-KOTA,Rajasthan,HPCL,D1,25.17,76.1,2024,July,20,148
HPC41002715,MSHSD SUDHARMA POWER POINT,KUNIGAL - RETAIL,KA-TUMKUR,Karnataka,HPCL,D2,13.03,77.03,2024,July,38,42
HPC41002717,M/s NIRMAL FILLING STATION,SALERA KHORD - RETAIL,RJ-UDAIPUR,Rajasthan,HPCL,D2,24.82,73.96,2024,July,31.5,40.5
HPC41002718,MSHSD SRI SAI K M FUELS,SIRA - RETAIL,KA-TUMKUR,Karnataka,HPCL,D1,13.75,76.88,2024,July,16,56
HPC41002721,MSHSD P K  FUEL JUNCTION,TUMKUR - RETAIL,KA-TUMKUR,Karnataka,HPCL,C,13.32,77.09,2024,July,79,81
HPC41002722,M/s EKLINGNATH FILLING STATION,GHASA - RETAIL,RJ-UDAIPUR,Rajasthan,HPCL,C,24.77,73.83,2024,July,30,50
HPC41002725,M/s VRUDHI PETROL BUNK,RAMNAGARAM - RETAIL,KA-RAMNAGARA,Karnataka,HPCL,C,12.79,77.31,2024,July,32,40
HPC41002726,M/s YASH PETROLEUM BHARNA,BHARNA - RETAIL,RJ-TONK,Rajasthan,HPCL,D1,25.97,75.65,2024,July,20,60
HPC41002728,M/s SRI SAI FUEL POINT,BETHAMANGALA - RETAIL,KA-KOLAR,Karnataka,HPCL,D1,12.98,78.47,2024,July,100,1156
HPC41002731,M/s R R FILLING STATION  ARAIN,ARAIN - RETAIL,RJ-AJMER,Rajasthan,HPCL,D2,26.44,75.03,2024,July,74,117
HPC41002734,TIRUPATI FILLING STATION,NIMBAHERA - RETAIL,RJ-CHITORGARH,Rajasthan,HPCL,D1,24.6,74.67,2024,July,25,495
HPC41002737,M/s T J PETROLEUM,KR PET - RETAIL,KA-MANDYA,Karnataka,HPCL,D2,12.67,76.5,2024,July,24,28
HPC41002738,M/s SUSHIL FILLING STATION  CHAINPU,CHAINPURA - RETAIL,RJ-TONK,Rajasthan,HPCL,D1,26.4,75.94,2024,July,32,150
HPC41002740,M/s JAYA JANYA FUEL STATION,MALAVALI - RETAIL,KA-MANDYA,Karnataka,HPCL,D2,12.4,77.05,2024,July,49,83
HPC41002743,M/s G S FILLING STATION,UDAIPUR - RETAIL,RJ-UDAIPUR,Rajasthan,HPCL,B,24.6,73.75,2024,July,75,213
HPC41002745,M/s  SAT FUEL PARK,BAGEPALLY - RETAIL,KA-CHIKKABALLAPURA,Karnataka,HPCL,D1,13.76,77.79,2024,July,112,592
HPC41002747,M/s V C PETROLEUM,JHADOL - RETAIL,RJ-UDAIPUR,Rajasthan,HPCL,D2,24.26,73.38,2024,July,20,20
HPC41002748,M/S HARI HARA FUELS  HONGASANDRA,BANGALORE CENTRAL - RETAIL,KA-BANGALORE-URB,Karnataka,HPCL,A,12.9,77.62,2024,July,310,98
HPC41002751,M/s ANNPURANA SERVICE STATION  Anta,BAMORI - RETAIL,RJ-BARAN,Rajasthan,HPCL,D1,25.15,76.27,2024,July,55,65
HPC41002753,M/s GUNASHREE FUEL ZONE,SIDDALGHATTA - RETAIL,KA-CHIKKABALLAPURA,Karnataka,HPCL,D1,13.39,77.88,2024,July,90,110
HPC41002755,M/s PATIDAR FUELS  Jhalawar City,JHALAWAR - RETAIL,RJ-JHALAWAR,Rajasthan,HPCL,D1,24.57,76.17,2024,July,105,115
HPC41002756,M/s NANDI PETROLEUMS,BAGEPALLY - RETAIL,KA-CHIKKABALLAPURA,Karnataka,HPCL,D1,13.74,77.79,2024,July,68,460
HPC41002759,MSHSD SRI BALAJI FUELS,KUNIGAL - RETAIL,KA-TUMKUR,Karnataka,HPCL,D2,12.98,77.02,2024,July,28,56
HPC41002761,M/s QUALITY FILLING STATION,BHALON KA GUDA - RETAIL,RJ-UDAIPUR,Rajasthan,HPCL,C,24.58,73.85,2024,July,40,260
HPC41002765,SHRI BHERUNATH PETROLEUM   DHIKOLA,DHIKOLA - RETAIL,RJ-SHAHPURA,Rajasthan,HPCL,D2,25.57,74.81,2024,July,16,32
HPC41002766,M/s Jawahar Service Station,"KR PURAM, BANGALORE - RETAIL",KA-BANGALORE-URB,Karnataka,HPCL,A,13.01,77.68,2024,July,0,0
HPC41002769,M/s SRIKAR FILLING STATION,BEKARIYA - RETAIL,RJ-UDAIPUR,Rajasthan,HPCL,D1,24.71,73.19,2024,July,40.5,67.5
HPC41002770,M/S MSHSD HP AUTO CARE CENTRE  BEGU,BANGALORE SOUTH - RETAIL,KA-BANGALORE-URB,Karnataka,HPCL,A,0,0,2024,July,258.32,117.76
HPC41002774,M/s AA FUELS,KAIWARA CROSS - RETAIL,KA-CHIKKABALLAPURA,Karnataka,HPCL,D2,13.31,77.98,2024,July,44,140
HPC41002776,M/s SHRI KALYAN FILLING STATION  JH,JHUNDWA - RETAIL,RJ-TONK,Rajasthan,HPCL,D2,25.85,76.08,2024,July,13.5,22.5
HPC41002777,M/s SRI ANNAPOORNESHWARI SERVICES,"ARSHINKUNTE, BANGALORE - RETAIL",KA-BANGALORE-URB,Karnataka,HPCL,D1,13.06,77.46,2024,July,95,329
HPC41002780,M/s Yashitha fuel station,HOSKOTE - RETAIL,KA-BANGALORE-RUR,Karnataka,HPCL,D2,13.04,77.87,2024,July,49,473
HPC41002782,M/s JAIN FILLING STATION  UNIARA,UNIARA - RETAIL,RJ-TONK,Rajasthan,HPCL,D1,25.93,76,2024,July,24,60
HPC41002783,MSHSD SHASHIKIRANA ENTERPRISES,TIPTUR - RETAIL,KA-TUMKUR,Karnataka,HPCL,D1,13.27,76.4,2024,July,28,56
HPC41002785,M/s K T FILLING STATION,UDAIPUR II - RETAIL,RJ-UDAIPUR,Rajasthan,HPCL,B,24.65,73.72,2024,July,125,207
HPC41002786,MSHSD JAIRAJ ENTERPRISES,SIRA - RETAIL,KA-TUMKUR,Karnataka,HPCL,D1,13.66,76.77,2024,July,56,112
HPC41002787,M/S ZERO HOUR FUELING PVT LTD,BANGALORE CENTRAL - RETAIL,KA-BANGALORE-URB,Karnataka,HPCL,-,0,0,2024,July,0,42
HPC41002789,M/s PINK CITY FUEL CENTRE,BASSI NAGA - RETAIL,RJ-JAIPUR (RURAL),Rajasthan,HPCL,D2,26.98,75.55,2024,July,65,175
HPC41002790,M/s SRI HANUMAN FUELS,KORATEGIRI - RETAIL,KA-TUMKUR,Karnataka,HPCL,D2,13.47,77.35,2024,July,16,32
HPC41002792,M/s MILLENNIUM JAIPUR BARWARA HOUSE,JAIPUR-SODALA (2717) - RETAIL,RJ-JAIPUR,Rajasthan,HPCL,A,0,0,2024,July,321.47,171.46
HPC41002793,M/s DHUTHI   CO,BYALADAKERE - RETAIL,KA-TUMKUR,Karnataka,HPCL,D2,12.98,76.88,2024,July,13,147
HPC41002795,M/S CHOUDHARY FILLING STN  BAGAD RA,BAGAD RAJPUT - RETAIL,RJ-ALWAR,Rajasthan,HPCL,D2,27.51,76.76,2024,July,40,68
HPC41002797,M/s LAKSHMA DEVI FILLING STATION,MUNDWARA - RETAIL,RJ-JAIPUR,Rajasthan,HPCL,C,27,75.3,2024,July,16,32
HPC41002799,M/s ADHOC SHAKTHI FUEL STATION,CHAMARAJA NAGAR - RETAIL,KA-CHAMARAJNAGAR,Karnataka,HPCL,D1,11.94,76.93,2024,July,10,66
HPC41002802,M/s SLV FUEL STATION,MALAVALI - RETAIL,KA-MANDYA,Karnataka,HPCL,D1,12.29,77.12,2024,July,72,128
HPC41002804,M/s SHREE BHAWANI FILLING STN  JASR,RAMPURABASS JASRASAR - RETAIL,RJ-CHURU,Rajasthan,HPCL,C,28.31,74.83,2024,July,21,59
HPC41002805,M/s SRINIVASA FUEL STATION,SRIRANGAPATNA - RETAIL,KA-MANDYA,Karnataka,HPCL,C,12.42,76.67,2024,July,28,32
HPC41002807,M/s BIJARNIYA TRADERS  RAVATSAR,RAVATSAR - RETAIL,RJ-HANUMANGARH,Rajasthan,HPCL,C,29.27,74.42,2024,July,20,76
HPC41002808,M/s HP Auto Care Center  Arehalli,BANGALORE SOUTH - RETAIL,KA-BANGALORE-URB,Karnataka,HPCL,A,0,0,2024,July,69.19,302.92
HPC41002810,M/S SHAHEED BHAGCHAND F/S  PATAN,RAMPURA PATAN - RETAIL,RJ-ALWAR,Rajasthan,HPCL,D2,27.18,76.93,2024,July,28,44
HPC41002811,M/s Sri Ranga Service Station,CHIKKANAYAKANAHALLI - RETAIL,KA-TUMKUR,Karnataka,HPCL,D1,13.42,76.62,2024,July,68,76
HPC41002815,M/s PRATHIMA ENTERPRISES,DODDBALAPUR - RETAIL,KA-BANGALORE-RUR,Karnataka,HPCL,D2,13.28,77.53,2024,July,118,108
HPC41002817,M/S SHRI MANGLAM FILLING STN  KATHO,KATHUMAR - RETAIL,RJ-ALWAR,Rajasthan,HPCL,D2,27.32,77.08,2024,July,40,32
HPC41002818,M/s Sapthagiri Service Station,TUMKUR - RETAIL,KA-TUMKUR,Karnataka,HPCL,C,13.31,77.13,2024,July,8,16
HPC41002819,M/s KANHAIYA FILLING STATION,UDAIPUR - RETAIL,RJ-UDAIPUR,Rajasthan,HPCL,B,24.58,73.65,2024,July,195,125
HPC41002820,M/s SAHUKAR FUEL PARK,TUMKUR - RETAIL,KA-TUMKUR,Karnataka,HPCL,C,13.33,77.09,2024,July,76,28
HPC41002822,MSHSD KARAGADAMMA FUEL STATION,CHINTAMANI - RETAIL,KA-CHIKKABALLAPURA,Karnataka,HPCL,C,13.37,78.04,2024,July,39,98
HPC41002823,M/S SHRI HARSH FILLING STATION,SAWAIMADHOPUR - RETAIL,RJ-SAWAIMADHOPUR,Rajasthan,HPCL,D2,26.05,76.37,2024,July,36,72
HPC41002824,MSHSD ADHOC SRI SAI FUEL POINT,KENDATTI - RETAIL,KA-KOLAR,Karnataka,HPCL,D1,13.13,78.03,2024,July,64,332
HPC41002825,M/s SAWAN BHARTI FILLING STATION,PARASOLI - RETAIL,RJ-JAIPUR,Rajasthan,HPCL,D1,26.65,75.12,2024,July,24,80
HPC41002826,M/s ADHOC ANANDA ENTERPRISES,KODAMBALLI - RETAIL,KA-RAMNAGARA,Karnataka,HPCL,D2,12.55,77.22,2024,July,0,0
HPC41002827,M/s SRI SIDDESHWARA FUELS,MAGADI - RETAIL,KA-RAMNAGARA,Karnataka,HPCL,D2,12.96,77.21,2024,July,36,72
HPC41002828,M/S HARSH VARDHAN FILLING STN  DIGH,DIGAWADA - RETAIL,RJ-ALWAR,Rajasthan,HPCL,D2,27.31,76.62,2024,July,12,48
HPC41002829,MSHSD V D S FUEL STATION,"BANASWADI, BANGALORE - RETAIL",KA-BANGALORE-URB,Karnataka,HPCL,A,13.01,77.64,2024,July,51,5
HPC41002830,M/s NISHU FILLING STATION,JAIPUR-MALVIYA NAGAR (2744) - RETAIL,RJ-JAIPUR,Rajasthan,HPCL,A,26.84,75.85,2024,July,355,270
HPC41002831,MSHSD SHREE VISHNU VALLABHA FUEL ST,KARKUR - RETAIL,KA-CHIKKABALLAPURA,Karnataka,HPCL,C,13.76,77.82,2024,July,42,74
HPC41002832,M/S SHIV SHAKTI FS  KHANBHANKRI,BHANKRI - RETAIL,RJ-DAUSA,Rajasthan,HPCL,C,26.94,76.38,2024,July,28,56
HPC41002833,MSHSD SRI MARUTHI SERVICE STATION,CHELUR - RETAIL,KA-CHIKKABALLAPURA,Karnataka,HPCL,D2,13.71,78.1,2024,July,45,115
HPC41002834,M/s SURYA SERVICE STATION,"HENNUR, BANGALORE - RETAIL",KA-BANGALORE-URB,Karnataka,HPCL,A,13.18,77.68,2024,July,114,511
HPC41002922,MAA PETROLEUM   SAMODI,SAMBHODHI - RETAIL,RJ-BHILWARA,Rajasthan,HPCL,C,25.34,74.55,2024,July,10,330
HPC41002927,M/S DESHRAJ FILLING STATION  PAHARS,BANSI KHURD - RETAIL,RJ-BHARATPUR,Rajasthan,HPCL,D1,27.15,77.29,2024,July,24,84
HPC41002932,MS HSD MANMOHAN ENTERPRISES,GANGAPUR CITY - RETAIL,RJ-GANGAPUR CITY,Rajasthan,HPCL,D2,26.46,76.7,2024,July,55,65
HPC41002937,AAYUSH FUEL MART,SHIVSINGHPURA - RETAIL,RJ-SIKAR,Rajasthan,HPCL,D2,27.66,75.18,2024,July,29,41
HPC41002941,M/s VIKAS PETROLEUM SERVICES,BALEKHAND - RETAIL,RJ-JAIPUR,Rajasthan,HPCL,D1,27.23,75.67,2024,July,40,92
HPC41002946,M/s GORA FILLING STATION  TEHAN DES,TEHAN DESAR - RETAIL,RJ-CHURU,Rajasthan,HPCL,D2,27.71,74,2024,July,12,60
HPC41002950,M/S SHRI SHYAM FILLING STATION  SOD,SODAWAS - RETAIL,RJ-KHAIRTHAL-TIJARA,Rajasthan,HPCL,D2,27.83,76.43,2024,July,8,16
HPC41002956,M/s ALFA HP,JAIPUR-SHASTRI NAGAR (2741) - RETAIL,RJ-JAIPUR,Rajasthan,HPCL,A,26.94,75.79,2024,July,150,130
HPC41002960,M/s CH  MAHAVEER SINGH GHINTALA FS,SURATGARH - RETAIL,RJ-GANGANAGAR,Rajasthan,HPCL,D2,29.33,73.81,2024,July,24,60
HPC41002965,M/s SARADA FUEL STATION  RATANGARH,RATANAGARH - RETAIL,RJ-CHURU,Rajasthan,HPCL,D2,28.04,74.61,2024,July,12,48
HPC41002969,M/s HAMARA PUMP SHREE SHYAM F S,KISHANPURA - RETAIL,RJ-JAIPUR (RURAL),Rajasthan,HPCL,C,27.3,75.53,2024,July,8,16
HPC41002973,M/s SHIVA FILLING STATION  SANDWA,SANDWA - RETAIL,RJ-CHURU,Rajasthan,HPCL,D2,27.75,74.15,2024,July,27,99
HPC41002978,M/s GURU TEG BAHADUR F/S  SAMIJA KO,SAMEJA KOTHI - RETAIL,RJ-ANOOPGARH,Rajasthan,HPCL,D2,29.44,73.3,2024,July,30,90
HPC41002983,M/s RAMANA PETRO SERVICE  GHARSANA,ISTR SATRANA - RETAIL,RJ-ANOOPGARH,Rajasthan,HPCL,C,29.02,73.09,2024,July,50,210
HPC41002986,AMAR PARAS FUEL MART,REENGUS - RETAIL,RJ-NEEM KA THANA,Rajasthan,HPCL,C,27.37,75.59,2024,July,52,92
HPC41002990,MSHSD MEHTA FUEL STATION,SANGOD - RETAIL,RJ-KOTA,Rajasthan,HPCL,C,24.89,76.3,2024,July,40,80
HPC41002991,MS/HSD SAI SRINIVASA FILLING STATIO,SATUPALLY - RETAIL,TG-KHAMMAM,Telangana,HPCL,D2,17.21,80.84,2024,July,75,65
HPC41002994,MSHSD SANVI FILLING STATION,BADANAYA GAON - RETAIL,RJ-BUNDI,Rajasthan,HPCL,D1,25.45,75.6,2024,July,25,95
HPC41002999,M/S GAURAV BOHRA FILLING ST  LADAMP,VIRODHA - RETAIL,RJ-DHOLPUR,Rajasthan,HPCL,D1,26.83,77.92,2024,July,16,32
HPC41003003,MSHSD HP HINDOLI,HINDOLI - RETAIL,RJ-BUNDI,Rajasthan,HPCL,D1,25.57,75.5,2024,July,51,103
HPC41003007,MSHSD DURWASA MAHADEV FILLING STATI,BADANAYA GAON - RETAIL,RJ-BUNDI,Rajasthan,HPCL,C,25.48,75.5,2024,July,16,44
HPC41003013,MSHSD BHAGWAN MAHAVEER FILLING STAT,BUNDI - RETAIL,RJ-BUNDI,Rajasthan,HPCL,C,25.42,75.73,2024,July,18,74
HPC41003019,MSHSD SHRI KALYANRAI FILLING STATIO,BAPAWAR - RETAIL,RJ-KOTA,Rajasthan,HPCL,D2,24.92,76.44,2024,July,20,20
HPC41003021,GOPU FILLING STATION,TADEPALLI - RETAIL,AP-GUNTUR,Andhra Pradesh (New),HPCL,D1,16.48,80.62,2024,July,372,379
HPC41003023,M/s Adhoc K S V Energy  Kulithalai,KULITHALAI - RETAIL,TN-KARUR,Tamil Nadu,HPCL,A,10.95,78.4,2024,July,12,12
HPC41003024,M/s RK FILLING STATION  Jhalawar Ci,JHALAWAR - RETAIL,RJ-JHALAWAR,Rajasthan,HPCL,D1,24.6,76.13,2024,July,22.5,49.5
HPC41003028,M/s SHRI KALYAN FS  Baran City,BARAN - RETAIL,RJ-BARAN,Rajasthan,HPCL,C,25.11,76.5,2024,July,35,65
HPC41003029,MSHSD ADHOC PVD AGENCIES  CUDDALORE,CUDALORE NEW CITY - RETAIL,TN-CUDDALORE,Tamil Nadu,HPCL,C,11.75,79.76,2024,July,26,12
HPC41003032,M/S  GRACE AGENCY  PUDUPATTINAM,SIRKALI - RETAIL,TN-MAYILADUTHURAI,Tamil Nadu,HPCL,C,11.34,79.81,2024,July,37,121
HPC41003033,M/s SAKSHAM FILLING STATION  Baran,BARAN - RETAIL,RJ-BARAN,Rajasthan,HPCL,C,25.1,76.53,2024,July,35,45
HPC41003038,ADHOC ANDAVAR SERVICE STATION,TINDIVANAM - RETAIL,TN-VILLUPURAM,Tamil Nadu,HPCL,A,12.25,79.61,2024,July,47,69
HPC41003040,MS HSD MILLENNIUM KOTA,KOTA - RETAIL,RJ-KOTA,Rajasthan,HPCL,B,0,0,2024,July,165.02,66.71
HPC41003044,MSHSD MADHAV FILLING STATION,RAMGANJ MANDI - RETAIL,RJ-KOTA,Rajasthan,HPCL,D2,24.76,75.91,2024,July,36,144
HPC41003046,M/s ADHOC WAHAB BROTHERS,TANJORE - RETAIL,TN-THANJAVUR,Tamil Nadu,HPCL,C,10.78,79.14,2024,July,108,48
HPC41003049,MSHSD G S FILLING STATION,KOTAH - RETAIL,RJ-KOTA,Rajasthan,HPCL,B,25.15,75.9,2024,July,100,100
HPC41003051,M/S Y S R SERVICE STATION KONANUR,KONANUR - RETAIL,KA-HASSAN,Karnataka,HPCL,D2,12.63,76.05,2024,July,48,36
HPC41003055,M/S SANDEEP SER STATION MALLIPATNA,MALLIPATNA - RETAIL,KA-HASSAN,Karnataka,HPCL,C,12.75,75.97,2024,July,24,36
HPC41003056,M/s SHREE JI PETROLEUM  MOTIPURA,MOTIPURA - RETAIL,RJ-TONK,Rajasthan,HPCL,D2,26.46,75.49,2024,July,16,8
HPC41003060,M/S HARSHA PETROLEUM AGENCY KERALAP,KERALAPURA - RETAIL,KA-HASSAN,Karnataka,HPCL,D2,12.58,76.17,2024,July,42,38
HPC41003062,SHRINATH PETROLEUM,SIKAR - RETAIL,RJ-SIKAR,Rajasthan,HPCL,D2,27.59,75.17,2024,July,130,190
HPC41003065,KULHARI FILLING STATION,BISSAU - RETAIL,RJ-JHUNJHUNU,Rajasthan,HPCL,D2,28.22,75.14,2024,July,23,73
HPC41003066,M/S BHAVANA ENTERPRISES,MALPE - RETAIL,KA-UDIPI,Karnataka,HPCL,C,13.35,74.71,2024,July,68,64
HPC41003069,M/s MANISH PETROLEUM,KOTHUN - RETAIL,RJ-JAIPUR (RURAL),Rajasthan,HPCL,D1,26.57,75.97,2024,July,20,172
HPC41003072,M/S SHRI SIDDHI VINAYAKA SERVICE ST,MOODBELLE - RETAIL,KA-UDIPI,Karnataka,HPCL,D2,13.28,74.82,2024,July,21,29
HPC41003073,M/s NARAYAN FILLING STATION,NH-8 DUDU - RETAIL,RJ-JAIPUR,Rajasthan,HPCL,D1,26.7,75.26,2024,July,8,118
HPC41003075,M/S KANACHUR AUTO SERVICES DERELKAT,DERALKATTE - RETAIL,KA-SOUTH KANARA,Karnataka,HPCL,C,12.8,74.9,2024,July,108,84
HPC41003077,M/s SETH SANVALIYA FILLING STATION,ASALPUR - RETAIL,RJ-JAIPUR (RURAL),Rajasthan,HPCL,C,26.9,75.41,2024,July,16,92
HPC41003079,M/S SRI LAXMI SER STATION DUDDA,DUDDA - RETAIL,KA-HASSAN,Karnataka,HPCL,D2,13.09,76.21,2024,July,36,36
HPC41003080,M/s VINAYAK FUEL CENTRE,DUDU - RETAIL,RJ-JAIPUR,Rajasthan,HPCL,D2,26.66,75.25,2024,July,20,60
HPC41003082,M/S  RACHANA SERVICE STATION JAVAGA,JAVAGAL - RETAIL,KA-HASSAN,Karnataka,HPCL,D1,13.29,76.05,2024,July,36,90
HPC41003083,M/s RIDHI SIDHI FUEL STATION  SARDA,SARDAR SHAHR - RETAIL,RJ-CHURU,Rajasthan,HPCL,D2,28.46,74.54,2024,July,25,75
HPC41003088,M/s BHADRAVATI LORRY OWNERS ASSN BH,BHADRAVATI - RETAIL,KA-SHIMOGA,Karnataka,HPCL,C,13.84,75.71,2024,July,36,24
HPC41003092,M/s D S KOILPILLAI AGENCIES,SATHANGADU - RETAIL,TN-MADRAS,Tamil Nadu,HPCL,D2,13.18,80.3,2024,July,79,89
HPC41003094,M/S SRICHAKRA FUELS CENTRE HASSAN,HASSAN - RETAIL,KA-HASSAN,Karnataka,HPCL,C,13.01,76.13,2024,July,42,112
HPC41003096,M/s SRI RAM ENTERPRISES,MINJUR - RETAIL,TN-TIRUVALLUR,Tamil Nadu,HPCL,A,13.24,80.22,2024,July,40,132
HPC41003098,M/S SUNANDA SERVICE STATION KUTTARP,KUTTARPADAVU - RETAIL,KA-SOUTH KANARA,Karnataka,HPCL,C,12.81,74.88,2024,July,57,45
HPC41003101,SRI SRINIVASA AGENCIES,THIRUVALANGADU - RETAIL,TN-TIRUVALLUR,Tamil Nadu,HPCL,D1,13.2,79.75,2024,July,75,185
HPC41003103,M/S BUDHAGI SERVICE STATION,YERMAL - RETAIL,KA-UDIPI,Karnataka,HPCL,D1,13.18,74.76,2024,July,62,206
HPC41003106,M/s ADHOC SRI ANBU AGENCIES,ARCOT - RETAIL,TN-RANIPET,Tamil Nadu,HPCL,D2,12.79,79.31,2024,July,12,12
HPC41003107,M/S SRI VENKATESHWARA ENTERPRISES C,CHENRAYAPATNA - RETAIL,KA-HASSAN,Karnataka,HPCL,D2,12.94,76.36,2024,July,12,60
HPC41003108,ADHOC SRIRAM AGENCY,TIRUTTANI - RETAIL,TN-TIRUVALLUR,Tamil Nadu,HPCL,D2,13.17,79.57,2024,July,23,19
HPC41003109,M/s SRI BALAJI FUELS SER STN ANAVAT,ANAVATTI - RETAIL,KA-SHIMOGA,Karnataka,HPCL,C,14.56,75.15,2024,July,32,16
HPC41003110,M/s KBR FUELS,MANGAL KOOT ROAD - RETAIL,TN-TIRUVANNAMALAI,Tamil Nadu,HPCL,D2,12.7,79.66,2024,July,50,62
HPC41003112,M/s ADHOC AJ SERVICE STATION,CHENNAI-T. NAGAR - RETAIL,TN-MADRAS,Tamil Nadu,HPCL,A,13.04,80.24,2024,July,40,40
HPC41003113,MSHSD ADHOC PM ARUMUGAM,CHENNAI-AYANAVARAM - RETAIL,TN-MADRAS,Tamil Nadu,HPCL,-,13.1,80.24,2024,July,0,0
HPC41003115,M/s Adhoc Venunadha,CHENNAI-MADHAVARAM - RETAIL,TN-MADRAS,Tamil Nadu,HPCL,D2,13.17,80.22,2024,July,0,0
HPC41003116,M/S SOWMYA ENTERPRISES,HEBRI - RETAIL,KA-UDIPI,Karnataka,HPCL,C,13.46,74.98,2024,July,32,28
HPC41003117,M/s LEIA PETROLEUM,VELAKALNATHAM - RETAIL,TN-TIRUPATHUR,Tamil Nadu,HPCL,D1,12.55,78.45,2024,July,44,38
HPC41003118,M/S SRI RAGHAVENDRA SERVICE STN HAG,HAGRE - RETAIL,KA-HASSAN,Karnataka,HPCL,D2,13.12,76,2024,July,37,45
HPC41003120,M/s ADHOC SRM FILLING STATION,PALLIKARANAI - RETAIL,TN-MADRAS,Tamil Nadu,HPCL,A,12.95,80.19,2024,July,0,0
HPC41003121,M/s ADHOC BRINDAVAN,CHENNAI-PATTALAM-BASIN BRIDGE - RETAIL,TN-MADRAS,Tamil Nadu,HPCL,A,13.1,80.26,2024,July,82,0
HPC41003122,M/S SINCHANA FUEL STATION HARANAHAL,HARANAHALLI - RETAIL,KA-HASSAN,Karnataka,HPCL,D2,13.25,76.23,2024,July,48,72
HPC41003129,M/S SHRUTHI SERVICE STATION BELTHAN,BELTHANGADY - RETAIL,KA-SOUTH KANARA,Karnataka,HPCL,D2,12.99,75.29,2024,July,46,58
HPC41003193,MS MAA NAINA HP FUEL CENTER,PANDGAL - RETAIL,HP-BILASPUR,Himachal Pradesh,HPCL,D1,31.29,76.77,2024,July,30,90
HPC41003195,M/s OM FILLING STATION  KUTHERA,KUTHERA - RETAIL,HP-BILASPUR,Himachal Pradesh,HPCL,D2,31.51,76.73,2024,July,14,19
HPC41003198,M/S GUPTA HP FUEL CENTRE,SARKAGHAT OML - RETAIL,HP-MANDI,Himachal Pradesh,HPCL,D1,31.79,76.75,2024,July,42,66
HPC41003203,M/s PARMAR FILLING STATION  DEHRA,DEHRA - RETAIL,HP-KANGRA,Himachal Pradesh,HPCL,D1,31.89,76.22,2024,July,69,47
HPC41003207,M/s PATHANIA FILLING STATION  GAGLU,GAGLU - RETAIL,HP-KANGRA,Himachal Pradesh,HPCL,D1,31.95,76.25,2024,July,42,30
HPC41003209,CHAUDHARY FILLING STATION,JOHRON - RETAIL,HP-SIRMOOR,Himachal Pradesh,HPCL,C,30.52,77.2,2024,July,36,192
HPC41003212,M/S MAA JALPA HP CENTER,NALAGARH HP CENTRE - RETAIL,HP-SOLON,Himachal Pradesh,HPCL,C,31.06,76.73,2024,July,22,97
HPC41003216,M/s SOAMI FILLING STATION  BARNOH,BADALA - RETAIL,HP-UNA,Himachal Pradesh,HPCL,C,31.51,76.29,2024,July,53,71
HPC41003218,M/S JUPITER HP CENTRE,BAGHERI - RETAIL,HP-SOLON,Himachal Pradesh,HPCL,C,31.2,76.63,2024,July,28,441
HPC41003225,M/s AK PURI HP CENTRE  GAGRET,GARGET - RETAIL,HP-UNA,Himachal Pradesh,HPCL,D1,31.65,76.02,2024,July,118,154
HPC41003228,M/s REMSAIEK HP CENTRE  LAMBIDHAR,DHALLI - RETAIL,HP-SIMLA,Himachal Pradesh,HPCL,C,31.11,77.21,2024,July,172,129
HPC41003230,M/s HP SHIV SHAKTI SERVICE STATION,SUNHANI - RETAIL,HP-BILASPUR,Himachal Pradesh,HPCL,C,31.41,76.67,2024,July,58,46
HPC41003235,MS/HSD KUNAL FILLING STATION,BALAG - RETAIL,HP-SIMLA,Himachal Pradesh,HPCL,C,31.03,77.37,2024,July,81,147
HPC41003238,M/s AARADHYA FILLING STATION  RANIK,KAHRSI - RETAIL,HP-BILASPUR,Himachal Pradesh,HPCL,C,31.32,76.85,2024,July,0,48
HPC41003243,ANAND SRI FILLING STATION,RANCHI - RETAIL,JH-RANCHI,Jharkhand,HPCL,D2,23.4,85.48,2024,July,44,40
HPC41003245,M/s PETROMART HP CENTRE  TAHLIWAL,TAHALIWAAL - RETAIL,HP-UNA,Himachal Pradesh,HPCL,C,31.35,76.29,2024,July,16,56
HPC41003247,NATURE HP FUELS,MIRZA CHOWKI - RETAIL,JH-SAHEBGANJ,Jharkhand,HPCL,D1,25.26,87.52,2024,July,42,210
HPC41003248,M/s STAN HP CENTRE  ANNU,ANNU - RETAIL,HP-SIMLA,Himachal Pradesh,HPCL,D1,31.12,77.48,2024,July,95,80
HPC41003250,MURMU HP FUELS,HIRANPUR - RETAIL,JH-PAKUR,Jharkhand,HPCL,C,24.73,87.71,2024,July,20,52
HPC41003251,JANA SAKTHI FUELS,VELLORA - RETAIL,KL-CANNANORE,Kerala,HPCL,C,12.17,75.36,2024,July,32,40
HPC41003253,M/S HIMFED FILLING STATION,PADHAR - RETAIL,HP-MANDI,Himachal Pradesh,HPCL,D1,31.89,76.91,2024,July,48,24
HPC41003254,B P KESHRI PETROL PUMP,GODERMANA - RETAIL,JH-GARHWA,Jharkhand,HPCL,C,23.64,83.78,2024,July,69,125
HPC41003258,CHALA FUEL SERVICE,GUMLA - RETAIL,JH-GUMLA,Jharkhand,HPCL,C,23.19,84.75,2024,July,32,40
HPC41003260,NOBLE FUELS,PANDAKKAL - RETAIL,PY-MAHE,Pondicherry U/T,HPCL,C,11.76,75.54,2024,July,168,240
HPC41003266,M s MAHADEV HP CENTRE  ALAMPUR,ALAMPUR - RETAIL,HP-KANGRA,Himachal Pradesh,HPCL,C,31.85,76.51,2024,July,68,52
HPC41003267,SHRI SAI BALAJI PETROLEUMS ATP,ANANTPUR - RETAIL,AP-ANANTAPUR,Andhra Pradesh (New),HPCL,C,14.69,77.6,2024,July,34,22
HPC41003269,M/s  Guruji Fuels,PHUSRO - RETAIL,JH-BOKARO,Jharkhand,HPCL,C,23.61,86.01,2024,July,28,32
HPC41003270,KANAKA DURGA FILLING STATIN GOOTY,GOOTY - RETAIL,AP-ANANTAPUR,Andhra Pradesh (New),HPCL,C,15.13,77.64,2024,July,31,39
HPC41003271,M/s GURU FILLING STATION  TAKKA,UNA - RETAIL,HP-UNA,Himachal Pradesh,HPCL,C,31.52,76.24,2024,July,40,20
HPC41003273,RAMBHA HP,DEOGHAR - RETAIL,JH-DEOGHAR,Jharkhand,HPCL,D1,24.52,86.64,2024,July,76,100
HPC41003274,M/s GANPATI FILLING STATION  BASSAL,UNA - RETAIL,HP-UNA,Himachal Pradesh,HPCL,C,31.52,76.22,2024,July,58,74
HPC41003276,VISWASAI FILLING STATION,REDDIVARIPALLI - RETAIL,AP-SRI SATHYA SAI,Andhra Pradesh (New),HPCL,C,14.25,78.19,2024,July,15,312
HPC41003277,M/s RANJANA FUELS  DARU,NAWADAH - RETAIL,JH-HAZARIBAGH,Jharkhand,HPCL,D1,24.01,85.57,2024,July,56,64
HPC41003279,MS/HSD SRI VENKATESWARA FILLING STA,TIRUPATHI - RETAIL,AP-TIRUPATI,Andhra Pradesh (New),HPCL,C,13.61,79.44,2024,July,87,51
HPC41003280,M/s GURUNANAK FILLING STATION  SADW,SADWAAN KHAS - RETAIL,HP-KANGRA,Himachal Pradesh,HPCL,C,32.34,75.91,2024,July,76,116
HPC41003285,M/s VISHAL HP CENTRE  SAYAR,KAHRSI - RETAIL,HP-BILASPUR,Himachal Pradesh,HPCL,C,31.33,76.84,2024,July,0,24
HPC41003290,M/s MAHALAXMI FILLING STATION  AJOU,TAHALIWAAL - RETAIL,HP-UNA,Himachal Pradesh,HPCL,C,31.36,76.33,2024,July,51,66
HPC41003292,M/s JAGADGURU KHADER LINGASAHEB FUE,KOWTHALAM - RETAIL,AP-KURNOOL,Andhra Pradesh (New),HPCL,C,15.77,77.13,2024,July,4,8
HPC41003295,M/s GONDPUR FILLING STATION  GONDPU,GONDPUR - RETAIL,HP-UNA,Himachal Pradesh,HPCL,C,31.3,76.22,2024,July,27,69
HPC41003296,M/s RLT FUEL FILLING STATION,CUDDAPAH BYPASS - RETAIL,AP-CUDDAPAH,Andhra Pradesh (New),HPCL,D1,14.51,78.8,2024,July,12,60
HPC41003299,M/s MAA BALASUNDARI HP CENTRE  RAMP,JOHRON - RETAIL,HP-SIRMOOR,Himachal Pradesh,HPCL,C,30.51,77.21,2024,July,34,256
HPC41003301,M/s SAI GANESH FUELS,UPPARAPALLI - RETAIL,AP-CUDDAPAH,Andhra Pradesh (New),HPCL,D2,14.42,78.95,2024,July,0,0
HPC41003303,M/s BRAR FILLING STATION  BARSAR,BARSAR - RETAIL,HP-HAMIRPUR,Himachal Pradesh,HPCL,D1,31.52,76.45,2024,July,60,72
HPC41003305,M/s JAGANS FILLING STATION,VEMPALLI - RETAIL,AP-CUDDAPAH,Andhra Pradesh (New),HPCL,D2,14.37,78.44,2024,July,58,114
HPC41003306,ISHANT HP,HIRANPUR - RETAIL,JH-PAKUR,Jharkhand,HPCL,D2,24.7,87.62,2024,July,60,94
HPC41003307,M/S KASANA FILLING STATION,NALAGARH HP CENTRE - RETAIL,HP-SOLON,Himachal Pradesh,HPCL,C,31.03,76.66,2024,July,28,151
HPC41003308,MS/HSD SRI HARI FILLING STATION,PEDDANJIMEDU - RETAIL,AP-TIRUPATI,Andhra Pradesh (New),HPCL,D2,13.68,79.57,2024,July,11,35
HPC41003310,M/s RUDRA FUELS  BHALT,BHALT - RETAIL,HP-HAMIRPUR,Himachal Pradesh,HPCL,C,31.5,76.48,2024,July,28,20
HPC41003312,SRI BOLIKONDA RANGASWAMY FILLING ST,ENGILIBANDA - RETAIL,AP-ANANTAPUR,Andhra Pradesh (New),HPCL,D1,15.12,77.68,2024,July,38,118
HPC41003313,M/s SHARANYA FILLING STATION  PUBOW,LALLUWAL - RETAIL,HP-UNA,Himachal Pradesh,HPCL,C,31.38,76.21,2024,July,29,103
HPC41003315,SRI ASWARTHA NARAYANASWAMI FUELS,VENKATAMPALLY - RETAIL,AP-ANANTAPUR,Andhra Pradesh (New),HPCL,D2,15.02,78,2024,July,0,258
HPC41003316,MS/HSD SAINI HP FUEL STATION,PAONTA SAHIB - RETAIL,HP-SIRMOOR,Himachal Pradesh,HPCL,C,30.45,77.63,2024,July,45,175
HPC41003318,MS/HSD N JYOTHI FILLING  STATION,RAMACHANDRAPURAM - RETAIL,AP-TIRUPATI,Andhra Pradesh (New),HPCL,D2,13.55,79.4,2024,July,54,62
HPC41003319,M/s PRAJAPATI HP FUEL CENTRE  BATHU,TAHALIWAAL - RETAIL,HP-UNA,Himachal Pradesh,HPCL,C,31.33,76.29,2024,July,35,125
HPC41003321,M/s GORSI HIGHWAY FUELS  BALI CHOWK,BALI CHOWKI - RETAIL,HP-MANDI,Himachal Pradesh,HPCL,D1,31.7,77.26,2024,July,49.98,101.97
HPC41003324,M/s S R  FILLING STATION  KOTI,CHAMBA - RETAIL,HP-CHAMBA,Himachal Pradesh,HPCL,C,32.66,76.03,2024,July,76,104
HPC41003325,M/s SRI VEERABADRA FILLING STATION,KOTHAPALLI - RETAIL,AP-CUDDAPAH,Andhra Pradesh (New),HPCL,D2,14.58,78.66,2024,July,12,24
HPC41003327,M/s GOODWILL PETRO  TAHLIWAL,TAHALIWAAL - RETAIL,HP-UNA,Himachal Pradesh,HPCL,C,31.36,76.27,2024,July,44,40
HPC41003330,M/s MUBARIKPUR HP CENTRE  MUBARIKPU,GARGET - RETAIL,HP-UNA,Himachal Pradesh,HPCL,C,31.71,76.08,2024,July,60,96
HPC41003334,M/s Ram Lal Filling Station  Nirman,NIRMAND - RETAIL,HP-KULU,Himachal Pradesh,HPCL,C,31.41,77.58,2024,July,62,58
HPC41003335,SRI GURUSHANTHI AGENCIES,MELMARUVATHUR - RETAIL,TN-CHENGALPATTU,Tamil Nadu,HPCL,D1,12.44,79.84,2024,July,54,226
HPC41003337,M/s SIVA SAI PETRO HUB   RAYACHOTY,ROYACHOTI - RETAIL,AP-ANNAMAYYA,Andhra Pradesh (New),HPCL,D1,14.09,78.76,2024,July,42,90
HPC41003338,M/S AGGARWAL FILLING STATION,SOLAN - RETAIL,HP-SOLON,Himachal Pradesh,HPCL,D1,31,77.09,2024,July,57,408
HPC41003341,M/s RAIZADA HP CENTRE,HAROLI - RETAIL,HP-UNA,Himachal Pradesh,HPCL,C,31.47,76.25,2024,July,28,44
HPC41003343,M/s MAHAVIRA FILLING STATION  Malku,BADDI - RETAIL,HP-SOLON,Himachal Pradesh,HPCL,D1,30.96,76.77,2024,July,51,187
HPC41003346,M/s CHARAN PETROMART  B TADIPATRI,PERUSOMULA - RETAIL,AP-NANDYAL,Andhra Pradesh (New),HPCL,-,15.02,78.18,2024,July,0,0
HPC41003347,M/s SHIVAM FILLING STATION,NALAGARH HP CENTRE - RETAIL,HP-SOLON,Himachal Pradesh,HPCL,C,31.03,76.68,2024,July,37,323
HPC41003349,M/s SREYA FUELS  CHITVEL,CHITVEL - RETAIL,AP-ANNAMAYYA,Andhra Pradesh (New),HPCL,D2,14.18,79.32,2024,July,68,114
HPC41003354,M/s RAHUL FILLING STATION  BARSAR,BARSAR - RETAIL,HP-HAMIRPUR,Himachal Pradesh,HPCL,D1,31.53,76.47,2024,July,45,27
HPC41003355,M/s PGR FILLING STATION  LAKKIREDDY,LAKKIREDDYPALLI - RETAIL,AP-ANNAMAYYA,Andhra Pradesh (New),HPCL,C,14.19,78.7,2024,July,26,38
HPC41003357,M/s MAA BAGLAMUKHI FILLING STATION,KANDRAUR - RETAIL,HP-BILASPUR,Himachal Pradesh,HPCL,D1,31.4,76.74,2024,July,4,8
HPC41003360,TIRUMALA VENKATESWARA FUELS,RAYALACHERU - RETAIL,AP-ANANTAPUR,Andhra Pradesh (New),HPCL,D1,15.07,77.79,2024,July,6,8
HPC41003364,M/s AMEER FUEL FILLING STATION  D K,CUDAPAH CITY - RETAIL,AP-CUDDAPAH,Andhra Pradesh (New),HPCL,C,14.49,78.83,2024,July,8,4
HPC41003371,M/S RADHAKRISHNA FUEL STATION PENUM,PENUMURU - RETAIL,AP-CHITTOOR,Andhra Pradesh (New),HPCL,D2,13.36,79.2,2024,July,28,38
HPC41003376,M/s MANCHALA KRISHNAIAH FUEL STATIO,PRODATTUR - RETAIL,AP-CUDDAPAH,Andhra Pradesh (New),HPCL,C,14.75,78.55,2024,July,75,19
HPC41003383,M/s HIMAVARSHI FUELS  YERRAGUNTLA,YERRAGUNTLA - RETAIL,AP-CUDDAPAH,Andhra Pradesh (New),HPCL,D2,14.64,78.54,2024,July,32,24
HPC41003390,M/s SRI DARGA MATHAJI AGENCIES RAMA,RAMAPURAM - RETAIL,AP-ANNAMAYYA,Andhra Pradesh (New),HPCL,D1,14.21,78.75,2024,July,36,60
HPC41003393,G K PETROLEUMS,HINDUPUR - RETAIL,AP-SRI SATHYA SAI,Andhra Pradesh (New),HPCL,D2,13.85,77.48,2024,July,40,14
HPC41003397,M/s SRI KRISHNA  AGENCIES  Seekaraj,SEEKARAJAPURAM - RETAIL,TN-VELLORE AMBEDKR,Tamil Nadu,HPCL,D1,12.98,79.28,2024,July,55,99
HPC41003399,M/s SUBRAMANYAM SWAMY AUTO CARE,THANDRAPADU - RETAIL,AP-KURNOOL,Andhra Pradesh (New),HPCL,C,15.85,78.06,2024,July,20,260
HPC41003401,S N  LAKSHMI AUTO MART,ILLUPUR - RETAIL,TN-PUDUKOTTAI,Tamil Nadu,HPCL,D2,10.51,78.63,2024,July,72,120
HPC41003404,K R J  FILL POINT,SETHARAPET - RETAIL,PY-PONDICHERRY,Pondicherry U/T,HPCL,C,11.99,79.73,2024,July,16,264
HPC41003405,M/s OM SHREE SAI RAM FUELS,"BANNERGHATTA, BANGALORE - RETAIL",KA-BANGALORE-URB,Karnataka,HPCL,A,12.78,77.7,2024,July,81,124
HPC41003408,M/s SHAAN PETROLEUM,KYATASANDRA - RETAIL,KA-TUMKUR,Karnataka,HPCL,D1,13.41,77.09,2024,July,44,440
HPC41003409,M/s SMD FIILLINGS STATION,TURAIYUR - RETAIL,TN-TIRUCHIRAPPALLI,Tamil Nadu,HPCL,D2,11.14,78.6,2024,July,55,205
HPC41003411,M/s GUDIBANDA SERVICE STATION,GUDIBANDA - RETAIL,KA-CHIKKABALLAPURA,Karnataka,HPCL,D2,13.67,77.71,2024,July,57,131
HPC41003412,M/s S P PETROLEUM,THIRUCHITRAMBALAM - RETAIL,TN-THANJAVUR,Tamil Nadu,HPCL,C,10.36,79.19,2024,July,60,96
HPC41003416,M/S SIVA TRADERS,ARASAMALAI - RETAIL,TN-PUDUKOTTAI,Tamil Nadu,HPCL,C,10.36,78.63,2024,July,56,40
HPC41003418,EAST END SERVICE STATION,MERCARA - RETAIL,KA-COORG,Karnataka,HPCL,D2,12.42,75.74,2024,July,96,96
HPC41003420,M/s RISHI PETROLEUM,S PUDUR - RETAIL,TN-THANJAVUR,Tamil Nadu,HPCL,D2,11,79.54,2024,July,49,49
HPC41003422,M/s HP AUTO CARE CENTRE YEDEHALLI,YEDEHALLI(BANGALORE) - RETAIL,KA-BANGALORE-RUR,Karnataka,HPCL,D1,0,0,2024,July,97.04,468.11
HPC41003424,M/s SRI SRINIVASA AGENCIES,TINDIVANAM - RETAIL,TN-VILLUPURAM,Tamil Nadu,HPCL,D1,12.18,79.62,2024,July,56,88
HPC41003426,M/s R G  FUEL STATION,MALUR - RETAIL,KA-KOLAR,Karnataka,HPCL,D2,13.01,77.94,2024,July,127,349
HPC41003427,SRI DHANABAKKIAM AGENCIES,CHATTIRAM - RETAIL,TN-CUDDALORE,Tamil Nadu,HPCL,C,11.65,79.6,2024,July,24,12
HPC41003429,M/S  G V K  PETROLEUM,KUMARIPALAYAM - RETAIL,TN-NAMAKKAL,Tamil Nadu,HPCL,C,11.05,78.15,2024,July,28,32
HPC41003431,M/s JAI PRAKASH FUEL PARK,BIDARAHALLI - RETAIL,KA-BANGALORE-URB,Karnataka,HPCL,A,13.1,77.62,2024,July,66,98
HPC41003433,M/S SAMY FUEL MART,NANJOOR - RETAIL,TN-PUDUKOTTAI,Tamil Nadu,HPCL,C,10.57,78.81,2024,July,28,20
HPC41003434,MS HSD SRI MALE MAHADESWARA SWAMY F,PERIYAPATNA - RETAIL,KA-MYSORE,Karnataka,HPCL,D2,12.34,76.1,2024,July,24,24
HPC41003437,MS HSD SRI BILIGIRI RANGASWAMY SER,KAMPALAPURA - RETAIL,KA-MYSORE,Karnataka,HPCL,D2,12.34,76.16,2024,July,60,72
HPC41003440,M/s SHREE RAGHAVENDRA FUELS,"YESHWANTAPUR, BANGALAORE(RETL) - RETAIL",KA-BANGALORE-URB,Karnataka,HPCL,D1,13.03,77.53,2024,July,86,223
HPC41003443,M/s SRI PADMA RAJESHWARI SERVICE ST,WHITEFIELD - RETAIL,KA-BANGALORE-URB,Karnataka,HPCL,A,13.01,77.76,2024,July,389,260
HPC41003446,M/s RUKMINI SERVICE STATION,"CHANDRA LAYOUT-KENGERI, B'LORE - RETAIL",KA-BANGALORE-URB,Karnataka,HPCL,A,12.94,77.49,2024,July,72,30
HPC41003449,M/s CHANNAKESHAVA FUEL STATION,RAMOHALLI - RETAIL,KA-BANGALORE-URB,Karnataka,HPCL,C,12.91,77.41,2024,July,70,115
HPC41003451,M/s LOHITA FUEL PARK,"JALAHALLI, BANGALORE - RETAIL",KA-BANGALORE-URB,Karnataka,HPCL,A,13.04,77.55,2024,July,229,217
HPC41003454,M/s SURABI SERVICE STATION UGRANPUR,MALAVALI - RETAIL,KA-MANDYA,Karnataka,HPCL,D2,12.38,77.04,2024,July,24,60
HPC41003456,M/s  ANAND SERVICE STATION,RAJANKUNTE - RETAIL,KA-BANGALORE-URB,Karnataka,HPCL,D2,13.16,77.57,2024,July,85,99
HPC41003457,M/s ADITYA ENTERPRISES,TIPTUR - RETAIL,KA-TUMKUR,Karnataka,HPCL,D1,13.26,76.49,2024,July,20,40
HPC41003458,M/s BALAJIS SIRA FUELS   SERVICE PT,SIRA - RETAIL,KA-TUMKUR,Karnataka,HPCL,D1,13.76,76.88,2024,July,40,220
HPC41003459,M/s NAGAMANGALA TAPCMS LTD NAGAMANG,NAGAMANGALA - RETAIL,KA-MANDYA,Karnataka,HPCL,D2,12.83,76.76,2024,July,120,168
HPC41003460,M/s VRISHABHADRI ENTERPRISES,"BANNERGHATTA, BANGALORE - RETAIL",KA-BANGALORE-URB,Karnataka,HPCL,A,12.92,77.64,2024,July,325,195
HPC41003461,M/s HAVISH PETROLEUM,WHITEFIELD - RETAIL,KA-BANGALORE-URB,Karnataka,HPCL,A,12.89,77.74,2024,July,104,208
HPC41003462,M/s R K FUEL STATION KEREGODU,KEREGODU - RETAIL,KA-MANDYA,Karnataka,HPCL,C,12.63,76.92,2024,July,34,34
HPC41003463,M/s GK FUEL PARK MANDYA,MANDYA - RETAIL,KA-MANDYA,Karnataka,HPCL,D1,12.53,76.9,2024,July,76,56
HPC41003464,M/s R P ENTERPRISES,WHITEFIELD - RETAIL,KA-BANGALORE-URB,Karnataka,HPCL,A,12.91,77.69,2024,July,192,144
HPC41003465,M/s TCVK RAJGOPAL SERVICE STATION,PAVAGADA - RETAIL,KA-TUMKUR,Karnataka,HPCL,D2,14.09,77.28,2024,July,24,44
HPC41003466,M/s VINAYAKA ENTERPRISES,"BANNERGHATTA, BANGALORE - RETAIL",KA-BANGALORE-URB,Karnataka,HPCL,A,12.77,77.65,2024,July,70,235
HPC41003467,M/s MARUTHI SERVICE STATION,"CHANDRA LAYOUT-KENGERI, B'LORE - RETAIL",KA-BANGALORE-URB,Karnataka,HPCL,D1,12.9,77.46,2024,July,235,440
HPC41003468,M/S DHEERGHA SERVICE STATION,MURNAD - RETAIL,KA-COORG,Karnataka,HPCL,D2,12.32,75.76,2024,July,72,60
HPC41003469,M/S JATIN ENTERPRISES,K R NAGAR - RETAIL,KA-MYSORE,Karnataka,HPCL,D2,12.44,76.38,2024,July,23,9
HPC41003470,M/s MSHSD HP Auto Care Centre  Old,"OLD AIRPORT, BANGALORE - RETAIL",KA-BANGALORE-URB,Karnataka,HPCL,A,0,0,2024,July,588.56,426.59
HPC41003471,M/s SRI LAKSHMI NARASIMHA SERVICE S,YELEHANKA - RETAIL,KA-BANGALORE-URB,Karnataka,HPCL,A,13.09,77.59,2024,July,140,172
HPC41003472,M/s VIGNESH PETROL BUNK,HOSKOTE - RETAIL,KA-BANGALORE-RUR,Karnataka,HPCL,D2,13.09,77.81,2024,July,41,159
HPC41003473,M/s NSB SERVICE STATION,BETHAMANGALA - RETAIL,KA-KOLAR,Karnataka,HPCL,D2,13.01,78.33,2024,July,24,60
HPC41003474,M/s CHOWDESHWARI SERVICE STATION,DEVANAHALLI - RETAIL,KA-BANGALORE-RUR,Karnataka,HPCL,C,13.26,77.72,2024,July,104,244
HPC41003475,M/S SRI BHYRAWESHWARA SERVICE STATI,YELWAL - RETAIL,KA-MYSORE,Karnataka,HPCL,D2,12.36,76.54,2024,July,56,52
HPC41003476,M/s KEERTHANA SERVICE STATION,K HONNALAGERE - RETAIL,KA-MANDYA,Karnataka,HPCL,C,12.58,77.09,2024,July,36,48
HPC41003477,M/s SKANDA SERVICE STATION,VENKATAGIRIKOTE - RETAIL,KA-BANGALORE-RUR,Karnataka,HPCL,D1,13.33,77.73,2024,July,80,532
HPC41003478,M/s LAVANYA FILLING STATION,SRINIVASAPURA - RETAIL,KA-KOLAR,Karnataka,HPCL,D1,13.33,78.21,2024,July,58,94
HPC41003479,M/s SUFIYAN SERVICE CENTRE,KOLAR - RETAIL,KA-KOLAR,Karnataka,HPCL,D2,13.13,78.12,2024,July,24,12
HPC41003480,M/s GANESHANA ENTERPRISES,WHITEFIELD - RETAIL,KA-BANGALORE-URB,Karnataka,HPCL,A,12.9,77.72,2024,July,178,284
HPC41003481,M/s SRI BALAJI FILLING STATION,KORATEGIRI - RETAIL,KA-TUMKUR,Karnataka,HPCL,D1,13.66,77.22,2024,July,63,119
HPC41003482,M/s CHETAN FUEL STATION,TURUVEKERE - RETAIL,KA-TUMKUR,Karnataka,HPCL,C,13.16,76.66,2024,July,0,0
HPC41003483,M/s SRI GAYATHRI FILLING CENTER,NITTUR - RETAIL,KA-TUMKUR,Karnataka,HPCL,C,13.44,76.92,2024,July,70,140
HPC41003484,M/s SREE VENKATESHWARA PETROLEUMS,"YESHWANTAPUR, BANGALAORE(RETL) - RETAIL",KA-BANGALORE-URB,Karnataka,HPCL,A,13.07,77.52,2024,July,97,47
HPC41003485,M/s STAR PETROLEUMS,TURUVEKERE - RETAIL,KA-TUMKUR,Karnataka,HPCL,C,13.17,76.67,2024,July,24,36
HPC41003486,M/s BABITHA FUELS,WHITEFIELD - RETAIL,KA-BANGALORE-URB,Karnataka,HPCL,D2,12.84,77.78,2024,July,99,139
HPC41003487,M/s SRI BALAJI FUEL STATION,YELIYURKODI - RETAIL,KA-MANDYA,Karnataka,HPCL,D1,12.5,76.82,2024,July,64,104
HPC41003488,HP AUTO CARE CENTER DRDO,"OLD AIRPORT, BANGALORE - RETAIL",KA-BANGALORE-URB,Karnataka,HPCL,A,12.98,77.66,2024,July,428,203
HPC41003489,M/s V C  SERVICE STATION,DEVANAHALLI - RETAIL,KA-BANGALORE-RUR,Karnataka,HPCL,D2,13.28,77.76,2024,July,34,46
HPC41003546,M/S Atharv Filling Station  Rampur,KALAMB - RETAIL,HP-SIRMOOR,Himachal Pradesh,HPCL,D1,30.52,77.23,2024,July,50,299
HPC41003552,M/S RUDRA TRANSPORT COMPANY,NALAGARH HP CENTRE - RETAIL,HP-SOLON,Himachal Pradesh,HPCL,-,0,0,2024,July,0,48
HPC41003554,M/S SIDHARTH HP FILLING STATION,KULU - RETAIL,HP-KULU,Himachal Pradesh,HPCL,D1,32.1,77.13,2024,July,67,53
HPC41003560,M/s CHINMASTIKA HP CENTRE  BHARWAIN,BHARWAIN - RETAIL,HP-UNA,Himachal Pradesh,HPCL,D1,31.78,76.12,2024,July,44,76
HPC41003563,M/s HR BHARDWAJ HP CENTRE  PALAKH,INDORA - RETAIL,HP-KANGRA,Himachal Pradesh,HPCL,C,32.09,75.76,2024,July,32,40
HPC41003566,M/S HARDIK HP CENTRE,PANDGAL - RETAIL,HP-BILASPUR,Himachal Pradesh,HPCL,D1,31.26,76.82,2024,July,45,63
HPC41003569,M/S SONI FILLING STATION,RAMPUR BUS HAHR - RETAIL,HP-SIMLA,Himachal Pradesh,HPCL,D1,31.54,77.82,2024,July,45,115
HPC41003572,M/S O2 FUEL DOORSTEP DIESEL DELIVER,NAHAN - RETAIL,HP-SIRMOOR,Himachal Pradesh,HPCL,-,0,0,2024,July,0,18
HPC41003575,M/S Bhagat Filling station,KHUHAN - RETAIL,HP-SIMLA,Himachal Pradesh,HPCL,D1,31.24,77.43,2024,July,8,40
HPC41003578,M/s JAI MAA KAMAKHYA HP CENTRE  TYA,BANGANA - RETAIL,HP-UNA,Himachal Pradesh,HPCL,C,31.54,76.41,2024,July,8,4
HPC41003581,M/s Sarvesh Highway Fuels,GHUMRAWIN - RETAIL,HP-BILASPUR,Himachal Pradesh,HPCL,D1,31.45,76.7,2024,July,48,40
HPC41003584,M/s ABHI PETROLEUM  TATHERA,GHALLUWAL - RETAIL,HP-UNA,Himachal Pradesh,HPCL,C,31.52,76.17,2024,July,36,36
HPC41003591,M/s  ADHOC GURUNANAK FILLING STATIO,SIHUNTAA - RETAIL,HP-CHAMBA,Himachal Pradesh,HPCL,-,32.3,76.1,2024,July,0,0
HPC41003594,M/s ADHOC PURI HP CENTRE  DAULATPUR,DAULATPUR CHOWK - RETAIL,HP-UNA,Himachal Pradesh,HPCL,-,31.77,76,2024,July,0,0
HPC41003597,M/s DEV SHANKAR FILLING STATION,KARSOG - RETAIL,HP-MANDI,Himachal Pradesh,HPCL,C,31.32,77.13,2024,July,28,44
HPC41003600,M/S JAI MAA SHITLA FILLING STATION,ARKI - RETAIL,HP-SOLON,Himachal Pradesh,HPCL,C,31.1,76.97,2024,July,36,36
HPC41003603,M/S SAINI FUELS PRIVATE LIMITED,NALAGARH HP CENTRE - RETAIL,HP-SOLON,Himachal Pradesh,HPCL,-,0,0,2024,July,0,0
HPC41003606,M/S ADHOC KANGRA HP CENTRE,JOGINDER NAGAR - RETAIL,HP-MANDI,Himachal Pradesh,HPCL,-,31.98,76.79,2024,July,16,16
HPC41003609,M/S ADHOC SHIV SHAKTI HP FILLING ST,THANAKKEGWA - RETAIL,HP-SIRMOOR,Himachal Pradesh,HPCL,C,30.6,77.41,2024,July,6,16
HPC41003612,M/S SHRI KRISHNA FILLING STATION,GHUMRAWIN - RETAIL,HP-BILASPUR,Himachal Pradesh,HPCL,D1,31.45,76.7,2024,July,6,6
HPC41003616,SHREE FILLING STATION,SOLAN - RETAIL,HP-SOLON,Himachal Pradesh,HPCL,C,30.92,77.06,2024,July,45,15
HPC41003619,M/s ROYAL PETROLEUMS  GOELA KHERA,SANOLI KHURD - RETAIL,HR-PANIPAT,Haryana,HPCL,C,29.32,77.11,2024,July,24,32
HPC41003622,M/s SRI RAM FILLING STATION,GHARAUNDA - RETAIL,HR-KARNAL,Haryana,HPCL,C,29.57,76.89,2024,July,4,56
HPC41003625,M/s MAHALAXMI HIGHWAY FILLING STATI,SIRASGARH - RETAIL,HR-AMBALA,Haryana,HPCL,D1,30.27,77.06,2024,July,12,12
HPC41003632,M/s SAI FILLING STATION  SHAHZADPUR,SHAHZADPUR - RETAIL,HR-AMBALA,Haryana,HPCL,D1,30.44,77.01,2024,July,24,60
HPC41003636,M/s KHUSHI HP FILLING STATION  BADH,TALHERI GUJRAN - RETAIL,HR-AMBALA,Haryana,HPCL,C,30.35,77.04,2024,July,8,52
HPC41003639,M/s HARI FILLING STATION,DHABAN - RETAIL,HR-SIRSA,Haryana,HPCL,C,29.67,75.03,2024,July,8,40
HPC41003643,M/S POONIA FILLING STATION,NARAINKHERA - RETAIL,HR-SIRSA,Haryana,HPCL,C,29.42,75.22,2024,July,8,28
HPC41003646,M/s SUNEEL FILLING STATION,BIJJUWALI - RETAIL,HR-SIRSA,Haryana,HPCL,D2,29.74,74.73,2024,July,36,96
HPC41003649,M/s SIDHI VINAYAK PETROZ  BHIRDANA,BHIRDANA - RETAIL,HR-FATEHABAD,Haryana,HPCL,C,29.54,75.54,2024,July,24,72
HPC41003652,M/s AJAY FILLING STATION  SAMAIN,SAMAIN - RETAIL,HR-FATEHABAD,Haryana,HPCL,D1,29.6,75.94,2024,July,12,24
HPC41003655,M/S KHESAR PETRO CARE,GANGWA - RETAIL,HR-HISSAR,Haryana,HPCL,D1,29.1,75.69,2024,July,20,72
HPC41003657,M/S PARK VIEW MILLENNIUM,DUGADA - RETAIL,JH-BOKARO,Jharkhand,HPCL,B,23.74,86.14,2024,July,83,51
HPC41003659,M/S SHREE MAA SHAKTI FUELS,DHANBAD - RETAIL,JH-DHANBAD,Jharkhand,HPCL,B,23.78,86.42,2024,July,86,40
HPC41003660,M/s BHADU FILLING STATION  BADOPAL,BADOPAL - RETAIL,HR-FATEHABAD,Haryana,HPCL,D1,29.4,75.56,2024,July,20,52
HPC41003661,M/s MAHAMAYA FUEL STATION  NERADAUA,NERADEOL - RETAIL,WB-PASCHIM MEDINIPUR,West Bengal,HPCL,D2,22.64,87.5,2024,July,48,120
HPC41003663,M/s ZHORAR FILLING STATION,DUDIANWALI - RETAIL,HR-SIRSA,Haryana,HPCL,C,29.62,74.73,2024,July,28,92
HPC41003665,M/s Gupta Fuel Station  Suri,BERMO - RETAIL,JH-BOKARO,Jharkhand,HPCL,C,23.9,86.04,2024,July,43,95
HPC41003666,M/s RAGHUWAR AGRO TECH LTD  NANAKPU,NANAKPUR - RETAIL,HR-PANCHKULA,Haryana,HPCL,D1,30.88,76.84,2024,July,10,15
HPC41003668,RENUKA FUELS  ASANSOL,USHAGRAM - RETAIL,WB-PASCHIM BARDHAMAN,West Bengal,HPCL,B,23.68,86.99,2024,July,66,14
HPC41003670,M/S J S MALIK FILLING STATION,HISSAR - RETAIL,HR-HISSAR,Haryana,HPCL,C,29.16,75.76,2024,July,63,57
HPC41003671,M/s PURUSHOTTAM PETROLEUM  RADHANAG,CHANDRAKONA TOWN - RETAIL,WB-PASCHIM MEDINIPUR,West Bengal,HPCL,D2,22.7,87.51,2024,July,44,148
HPC41003673,M/s GIRIRAJ FILLING STATION  JAGADA,JAGADHRI - RETAIL,HR-YAMUNA NAGAR,Haryana,HPCL,D1,30.17,77.32,2024,July,44,76
HPC41003675,M/S KHARINTA PETRO ENERGY,DABRA - RETAIL,HR-HISSAR,Haryana,HPCL,C,29.1,75.75,2024,July,32,88
HPC41003677,JAI BALAJI FILLING STATION,MANDI ADAMPUR - RETAIL,HR-HISSAR,Haryana,HPCL,C,29.28,75.41,2024,July,12,48
HPC41003679,M/s PARAS FILLING STATION  PANIPAT,PANIPAT - RETAIL,HR-PANIPAT,Haryana,HPCL,D2,29.37,76.96,2024,July,20,52
HPC41003680,M/s VALLAL FUEL STATION,THERKUTHERU - RETAIL,TN-PUDUKOTTAI,Tamil Nadu,HPCL,C,10.43,78.99,2024,July,60,36
HPC41003681,M/s DHAUE FILLING STATION,KAITHAL - RETAIL,HR-KAITHAL,Haryana,HPCL,D1,29.79,76.42,2024,July,68,124
HPC41003682,M/s MARUTHI FUELS,SETHUBAVACHATHRAM - RETAIL,TN-THANJAVUR,Tamil Nadu,HPCL,D2,10.25,79.28,2024,July,25,63
HPC41003683,DASHMESH FILLING STATION,BHUNA - RETAIL,HR-FATEHABAD,Haryana,HPCL,C,29.55,75.71,2024,July,28,56
HPC41003684,M/s V V D PETROL STATION,EACHAMPATTI - RETAIL,TN-PERAMBALUR,Tamil Nadu,HPCL,C,11.23,78.78,2024,July,25,35
HPC41003685,M/s ASHOKA PETRO  RATANGARH,RATANGARH - RETAIL,HR-FATEHABAD,Haryana,HPCL,D2,29.73,75.56,2024,July,12,36
HPC41003686,M/s SRI BALAVINAYAGAR AGENCIES,PAPANASAM - RETAIL,TN-THANJAVUR,Tamil Nadu,HPCL,C,10.91,79.27,2024,July,32,21
HPC41003687,NITIKA FILLING STATION GARABDESAR,KALU - RETAIL,RJ-BIKANER,Rajasthan,HPCL,D2,28.42,73.97,2024,July,8,64
HPC41003689,M/s JAI MATA FILLING STATION ARRAIN,KHIZRABAD - RETAIL,HR-YAMUNA NAGAR,Haryana,HPCL,D1,30.3,77.55,2024,July,20,28
HPC41003690,M/s P K  AGENCIES  VENGUR,VENGUR - R - RETAIL,TN-KALLAKURICHI,Tamil Nadu,HPCL,D2,11.9,79.18,2024,July,76,56
HPC41003691,M/s DELTA FUELS,VALLAM - RETAIL,TN-THANJAVUR,Tamil Nadu,HPCL,D1,10.73,79.04,2024,July,46,93
HPC41003692,M/s ABHINAV FILLING STATION  JAMPUR,RADAUR OML - RETAIL,HR-YAMUNA NAGAR,Haryana,HPCL,C,30.12,77.23,2024,July,16,8
HPC41003694,M/s SRI LAKSHMI AGENCIES,PAGAVATHAPURAM - RETAIL,TN-THANJAVUR,Tamil Nadu,HPCL,D1,11.02,79.41,2024,July,47,57
HPC41003695,M/s DKP AGENCY  TINDIVANAM,TINDIVANAM - RETAIL,TN-VILLUPURAM,Tamil Nadu,HPCL,C,12.22,79.66,2024,July,56,76
HPC41003696,M/s AGR AGENCIES,GANDARVAKOTTAI - RETAIL,TN-PUDUKOTTAI,Tamil Nadu,HPCL,D2,10.57,79.02,2024,July,88,128
HPC41003697,PON BALAJI AGENCIES,KOMARAPALAYAM - RETAIL,TN-NAMAKKAL,Tamil Nadu,HPCL,C,11.44,77.71,2024,July,68,16
HPC41003699,GOKUL AGENCIES,KUMARATCHI - RETAIL,TN-CUDDALORE,Tamil Nadu,HPCL,D1,11.33,79.63,2024,July,52,46
HPC41003702,VASANTH   CO,KUNNATHUR - RETAIL,TN-TIRUPPUR,Tamil Nadu,HPCL,D2,11.27,77.41,2024,July,44,28
HPC41003703,K G M   CO,TIRUPUR - RETAIL,TN-TIRUPPUR,Tamil Nadu,HPCL,C,11.08,77.33,2024,July,48,72
HPC41003704,SIVA AGENCIES,TIRUPUR - RETAIL,TN-TIRUPPUR,Tamil Nadu,HPCL,B,11.11,77.35,2024,July,166,52
HPC41003705,SRI S P T   CO,SEENAPURAM - RETAIL,TN-ERODE,Tamil Nadu,HPCL,D2,11.29,77.53,2024,July,4,8
HPC41003707,N  STAR AGENCY,TIRUPUR - RETAIL,TN-TIRUPPUR,Tamil Nadu,HPCL,C,11.07,77.38,2024,July,78,98
HPC41003708,AGNI BALAJI AGENCIES,MEENAKSHIPURAM - RETAIL,TN-COIMBATORE,Tamil Nadu,HPCL,C,10.63,76.88,2024,July,4,4
HPC41003709,SELVI  CO,TIRUPUR - RETAIL,TN-TIRUPPUR,Tamil Nadu,HPCL,B,11.09,77.38,2024,July,56,136
HPC41003710,SRI SIVA AGENCIESS,MACHERI - RETAIL,TN-SALEM,Tamil Nadu,HPCL,C,11.83,77.95,2024,July,25,86
HPC41003711,THIRUMURUGAR FUEL,CHINNAPAMPATTI - RETAIL,TN-SALEM,Tamil Nadu,HPCL,D2,11.64,77.95,2024,July,39,17
HPC41003712,BALU FUELS,VARADANALLUR - RETAIL,TN-ERODE,Tamil Nadu,HPCL,D1,11.5,77.7,2024,July,16,20
HPC41003714,J K FUELS,ERODE - RETAIL,TN-ERODE,Tamil Nadu,HPCL,B,11.37,77.71,2024,July,28,20
HPC41003715,K S K ENTERPRISES,KOTHAMANGALAM - RETAIL,TN-ERODE,Tamil Nadu,HPCL,C,11.49,77.12,2024,July,16,80
HPC41003716,V S A AGENCIIES,MACHERI - RETAIL,TN-SALEM,Tamil Nadu,HPCL,D2,11.82,77.93,2024,July,29,14
HPC41003717,SRI SAI RAM FUELS,GOBICHETTIPALAYM - RETAIL,TN-ERODE,Tamil Nadu,HPCL,B,11.45,77.44,2024,July,32,28
HPC41003718,N K ENTERPRISES,CHENNIMALAI - RETAIL,TN-ERODE,Tamil Nadu,HPCL,C,11.17,77.61,2024,July,68,28
HPC41003719,JAYAM FUELS AGENCIES,PERUNTHALAIYUR - RETAIL,TN-ERODE,Tamil Nadu,HPCL,C,11.46,77.57,2024,July,60,36
HPC41003720,ANNAI BALA AGENCIES,SAVADIPALAYAMPUDUR - RETAIL,TN-ERODE,Tamil Nadu,HPCL,D2,11.28,77.79,2024,July,24,12
HPC41003721,S S AGENCIEES,THERKKUMETTUPALAYAM - RETAIL,TN-ERODE,Tamil Nadu,HPCL,C,11.24,77.66,2024,July,32,40
HPC41003723,APPICHIMAR ENTERPRISES,SUPPIAMPALAYAMPRIVU - RETAIL,TN-ERODE,Tamil Nadu,HPCL,D2,11.32,77.49,2024,July,28,20
HPC41003724,BANNARI AMMAN ENTERPRISES,SENDRIYAMPALAYAM - RETAIL,TN-ERODE,Tamil Nadu,HPCL,B,11.5,77.32,2024,July,28,68
HPC41003725,AADHITHYA AGENCY,TIRUPUR - RETAIL,TN-TIRUPPUR,Tamil Nadu,HPCL,B,11.15,77.31,2024,July,121,103
HPC41003726,AKASH FUEL SERVICE,KANGAYAM - RETAIL,TN-TIRUPPUR,Tamil Nadu,HPCL,B,11.02,77.55,2024,July,52,76
HPC41003727,AMMAN AGENCIES,VELIAMPALAYAM - RETAIL,TN-TIRUPPUR,Tamil Nadu,HPCL,B,11.14,77.42,2024,July,38,166
HPC41003728,SUN POWER AGENCIES,NORTH AVINASHIPALAYAM - RETAIL,TN-TIRUPPUR,Tamil Nadu,HPCL,B,11,77.41,2024,July,44,40
HPC41003729,KAMALAM AGENCIES,ELATHUR - RETAIL,TN-ERODE,Tamil Nadu,HPCL,C,11.38,77.31,2024,July,16,20
HPC41003730,SRI BALAJI FILLING STATION,CHHATRAI - RETAIL,AP-ELURU,Andhra Pradesh (New),HPCL,D2,16.99,80.86,2024,July,39,95
HPC41003732,MS/HSD SRI SRI SRI FILLING STATION,KHAMMAM BYPASS - RETAIL,TG-KHAMMAM,Telangana,HPCL,D2,17.26,80.15,2024,July,43,59
HPC41003734,MS/HSD KHAJA GARIBAN NAWAZ FILLING,"WARANGAL CROSS ROAD, KHAMMAM - RETAIL",TG-KHAMMAM,Telangana,HPCL,C,17.26,80.11,2024,July,8,4
HPC41003735,MS/HSD BHEEMLA FILLING STATION,RAGHUNATHAPALEM - RETAIL,TG-KHAMMAM,Telangana,HPCL,C,17.29,80.19,2024,July,28,36
HPC41003736,M/s GEERGEE SERVICE STATION,BARAGUR - RETAIL,KA-TUMKUR,Karnataka,HPCL,D1,13.59,76.97,2024,July,36,36
HPC41003737,M/s PUSHPAS FUEL STATION,"CHANDAPURA, BANGALORE - RETAIL",KA-BANGALORE-URB,Karnataka,HPCL,D1,12.83,77.68,2024,July,123,136
HPC41003738,M/S CHAYADEVI ENTERPRISES,HUNSUR - RETAIL,KA-MYSORE,Karnataka,HPCL,D2,12.31,76.3,2024,July,72,72
HPC41003739,M/s SAI RAM PETRO SERVICE,HOSKOTE - RETAIL,KA-BANGALORE-RUR,Karnataka,HPCL,D2,13.2,77.9,2024,July,44,58
HPC41003740,M/s S L V PETROLEUMS,PERESANDRA - RETAIL,KA-CHIKKABALLAPURA,Karnataka,HPCL,D1,13.59,77.78,2024,July,35,285
HPC41003741,M/s SRI SRINIVASA FUEL STATION,HANNUR - RETAIL,KA-CHAMARAJNAGAR,Karnataka,HPCL,D2,12.1,77.29,2024,July,32,52
HPC41003742,M/s PINK PETROL PARK,WHITEFIELD - RETAIL,KA-BANGALORE-URB,Karnataka,HPCL,A,12.93,77.74,2024,July,200,160
HPC41003743,M/s C P R PETROLEUMS,RAMNAGARAM - RETAIL,KA-RAMNAGARA,Karnataka,HPCL,D1,12.65,77.19,2024,July,220,260
HPC41003744,M/s SRI MANJUNATHA SERVICE STATION,KUNIGAL - RETAIL,KA-TUMKUR,Karnataka,HPCL,D1,13.03,77.08,2024,July,43,105
HPC41003746,M/s BHAVISH FUEL STATION,JAKKANAHALLI - RETAIL,KA-MANDYA,Karnataka,HPCL,D2,12.66,76.69,2024,July,52,92
HPC41003747,M/s SRI MADEGOWDA FUEL STATION,KOLLEGAL - RETAIL,KA-CHAMARAJNAGAR,Karnataka,HPCL,C,12.15,77.11,2024,July,80,136
HPC41003748,M/s GOWTHAM FUEL STATION,BUKKINEKERE - RETAIL,KA-MANDYA,Karnataka,HPCL,C,12.56,76.52,2024,July,0,0
HPC41003749,M/s SOMPURA SERVICE STATION,WHITEFIELD - RETAIL,KA-BANGALORE-URB,Karnataka,HPCL,D2,12.86,77.77,2024,July,90,50
HPC41003750,M/s Charvi Fuel Park,"BANNERGHATTA, BANGALORE - RETAIL",KA-BANGALORE-URB,Karnataka,HPCL,A,12.84,77.62,2024,July,91,137
HPC41003752,M/s SRI DODDEGOWDA PETROL PUMP,KORATEGIRI - RETAIL,KA-TUMKUR,Karnataka,HPCL,D2,13.51,77.22,2024,July,52,214
HPC41003753,M/s THAMMAIAH BROTHERS FUEL STATIO,HONAVALLI - RETAIL,KA-TUMKUR,Karnataka,HPCL,C,13.32,76.39,2024,July,24,48
HPC41003754,M/s SRI SAANVI  HP FUEL STATION,"UTTARAHALLI, BANGALORE - RETAIL",KA-BANGALORE-URB,Karnataka,HPCL,A,12.91,77.54,2024,July,102,90
HPC41003756,M/s DEVIKA GASOLINE PARK,"YESHWANTAPUR, BANGALAORE(RETL) - RETAIL",KA-BANGALORE-URB,Karnataka,HPCL,A,13.06,77.51,2024,July,288,132
HPC41003757,M/s L C PETROLEUM,AGALKOTE - RETAIL,KA-RAMNAGARA,Karnataka,HPCL,D2,12.92,77.16,2024,July,68,124
HPC41003759,M/s TAKSH FUEL STATION,NARASAPUR - RETAIL,KA-KOLAR,Karnataka,HPCL,D1,13.14,78.02,2024,July,76,608
HPC41003760,M/s PRIYADARSHI FUEL STATION,"BASWESWARNAGAR, BANGALORE - RETAIL",KA-BANGALORE-URB,Karnataka,HPCL,A,12.98,77.55,2024,July,100,61
HPC41003761,M/S VIJAYA FUEL OUTLET,SARGUR - RETAIL,KA-MYSORE,Karnataka,HPCL,D2,12,76.4,2024,July,88,80
HPC41003762,M/s SREE RAGHAVENDRA FUEL STATION,BASARALU - RETAIL,KA-MANDYA,Karnataka,HPCL,C,12.7,76.82,2024,July,44,52
HPC41003763,M/s SRI LAKSHMI VENKATESWARA SERVIC,CHINTAMANI - RETAIL,KA-CHIKKABALLAPURA,Karnataka,HPCL,D2,13.38,78.09,2024,July,88,156
HPC41003764,M/s SURABHI SERVICE STATION,KOLAR - RETAIL,KA-KOLAR,Karnataka,HPCL,D1,13.12,78.08,2024,July,12,128
HPC41003765,M/s SRI VENKUS   CO,"CHAMRAJPET, BANGALORE - RETAIL",KA-BANGALORE-URB,Karnataka,HPCL,A,12.96,77.57,2024,July,100,100
HPC41003766,M/s ANANDA ENTERPRISES,RAMNAGARAM - RETAIL,KA-RAMNAGARA,Karnataka,HPCL,D1,12.71,77.26,2024,July,108,120
HPC41003767,M/s S L R  PETROL BUNK,TIPTUR - RETAIL,KA-TUMKUR,Karnataka,HPCL,D2,13.27,76.47,2024,July,63,75
HPC41003768,M/s RAJA FUEL PARK,NITTUR - RETAIL,KA-TUMKUR,Karnataka,HPCL,C,13.23,76.86,2024,July,54,114
HPC41003769,M/S SRI MANJUNATHESWARA SERVICE STA,PANCHAVALLI - RETAIL,KA-MYSORE,Karnataka,HPCL,D2,12.29,76.14,2024,July,44,64
HPC41003770,N SUNDARAM AND SONS FUEL STATION,MYSORE - NORTH - RETAIL,KA-MYSORE,Karnataka,HPCL,C,12.31,76.6,2024,July,153,171
HPC41003771,M/s BH FUELS,ALLIPURA - RETAIL,KA-CHIKKABALLAPURA,Karnataka,HPCL,D2,13.49,77.46,2024,July,28,32
HPC41003772,M/s DEEPANJALI SERVICE STATION,"CHANDRA LAYOUT-KENGERI, B'LORE - RETAIL",KA-BANGALORE-URB,Karnataka,HPCL,D1,12.88,77.45,2024,July,79,133
HPC41003774,M/s SRI MARUTHI PETROL PUMP,PAVAGADA - RETAIL,KA-TUMKUR,Karnataka,HPCL,C,14.27,77.19,2024,July,75,93
HPC41003777,M/s HEMANTH PRANATHI FUEL PARK,YELANDUR - RETAIL,KA-CHAMARAJNAGAR,Karnataka,HPCL,D1,12.06,77.03,2024,July,24,72
HPC41003779,M/s PUSHPA AGENCY,"MAGADI ROAD, BANGALORE - RETAIL",KA-BANGALORE-URB,Karnataka,HPCL,A,12.99,77.47,2024,July,64,68
HPC41003781,M/S VASUKI FUELS,NANJANGUD - RETAIL,KA-MYSORE,Karnataka,HPCL,D1,12.1,76.67,2024,July,155,145
HPC41003783,M/s SRI GANAPATHI SERVICE STATION,MADDUR - RETAIL,KA-MANDYA,Karnataka,HPCL,D1,12.61,77.05,2024,July,35,145
HPC41003786,M/s VIJAY GASOLINE,"OLD AIRPORT, BANGALORE - RETAIL",KA-BANGALORE-URB,Karnataka,HPCL,A,12.98,77.7,2024,July,335,645
HPC41003788,M/s SLV FILLING STATION,ROBERTSAONPET - RETAIL,KA-KOLAR,Karnataka,HPCL,C,12.96,78.28,2024,July,40,44
HPC41003790,M/s SRI SAPTHAGIRI FUELS,WHITEFIELD - RETAIL,KA-BANGALORE-URB,Karnataka,HPCL,A,12.84,77.73,2024,July,100,140
HPC41003796,M/s SKANDAGIRI FUEL STATION,KIBBANAHALLI CROSS - RETAIL,KA-TUMKUR,Karnataka,HPCL,D1,13.32,76.69,2024,July,20,100
HPC41003798,M/S SRI JAYALAKSHMI SERVICE STATION,BHERIYA - RETAIL,KA-MYSORE,Karnataka,HPCL,D2,12.59,76.35,2024,July,0,0
HPC41003800,M/S SRI SIDDALINGESWARA FUEL STATIO,K R NAGAR - RETAIL,KA-MYSORE,Karnataka,HPCL,C,12.44,76.38,2024,July,78,78
HPC41003831,VAISHNAV PETROLEUM,JAPLA - RETAIL,JH-PALAMAU,Jharkhand,HPCL,C,24.47,84.15,2024,July,0,0
HPC41003834,M/s DADA FILLING CENTRE,PANSKURA - RETAIL,WB-PURBA MEDINIPUR,West Bengal,HPCL,D2,22.41,87.74,2024,July,80,376
HPC41003836,M/s LATLU FUEL STATION  MATKAMA,SAUNDA - RETAIL,JH-RAMGARH,Jharkhand,HPCL,D2,23.64,85.36,2024,July,65,61
HPC41003838,CHATTERJEE FUEL CENTRE DAMODARPUR,DAMODARPUR - RETAIL,WB-BANKURA,West Bengal,HPCL,D1,23.21,87.03,2024,July,50,78
HPC41003840,JEETU FUELS,MESHRA - RETAIL,JH-RANCHI,Jharkhand,HPCL,C,23.44,85.4,2024,July,68,112
HPC41003841,M/s NATIONAL FILLING STATION,SULOCHANA - RETAIL,WB-PURBA MEDINIPUR,West Bengal,HPCL,C,22.26,87.85,2024,July,86,102
HPC41003842,DILEEP SAHU PETROL FUEL,RANCHI - RETAIL,JH-RANCHI,Jharkhand,HPCL,B,23.45,85.35,2024,July,83.5,122.5
HPC41003843,M/s ALAHI VARASHA FUEL STATION,BADANGUNJ - RETAIL,WB-PASCHIM MEDINIPUR,West Bengal,HPCL,C,22.9,87.46,2024,July,44,112
HPC41003844,GITAM FUELS   SERVICES,NAMKUM - RETAIL,JH-RANCHI,Jharkhand,HPCL,C,23.32,85.25,2024,July,35,105
HPC41003845,M/S BABA NARAYAN FILLING STATION,MALAMBA - RETAIL,WB-PURBA BARDHAMAN,West Bengal,HPCL,D2,23.36,88.06,2024,July,28,152
HPC41003848,NARAYANIS FILLING STATION BISHNUPUR,VISHNUPUR - RETAIL,WB-BANKURA,West Bengal,HPCL,D2,23.09,87.32,2024,July,71,69
HPC41003849,LAL BACHCHA PETROL PUMP,NAGARUNTARI - RETAIL,JH-GARHWA,Jharkhand,HPCL,C,24.29,83.65,2024,July,46,68
HPC41003850,M/s TARA MAA FUEL STATION  BURARI,BURARI - RETAIL,WB-PURBA MEDINIPUR,West Bengal,HPCL,D2,22.39,87.88,2024,July,52,68
HPC41003851,SHIV SHAKTI FUEL CENTRE,CHANDWA - RETAIL,JH-LATEHAR,Jharkhand,HPCL,D1,23.87,84.33,2024,July,49.5,122.5
HPC41003853,M/s RENUKA OIL COMPANY,TARAWARI - RETAIL,HR-KARNAL,Haryana,HPCL,C,29.79,76.92,2024,July,25,35
HPC41003854,R N AUTOMOBILES  DALDALI MORE,DALDALI - RETAIL,WB-PURULIA,West Bengal,HPCL,D2,23.29,86.63,2024,July,35,57
HPC41003855,M/s SHREE BRAHM PETRO CARE,BHAROKHAN - RETAIL,HR-SIRSA,Haryana,HPCL,C,29.61,75.16,2024,July,4,32
HPC41003856,ADHOC PARK VIEW SERVICE STATION,SINDRI - RETAIL,JH-DHANBAD,Jharkhand,HPCL,B,23.65,86.48,2024,July,0,0
HPC41003857,M/s SORABH FILLING STATION,KALAYAT - RETAIL,HR-KAITHAL,Haryana,HPCL,C,29.65,76.26,2024,July,24,48
HPC41003858,SRI GURU FILLING STATION  BHEDUA,BHEDUA - RETAIL,WB-BANKURA,West Bengal,HPCL,D2,23.27,87.12,2024,July,16,44
HPC41003859,M/s GURUNANAK FILLING STATION,KEORAK - RETAIL,HR-KAITHAL,Haryana,HPCL,C,29.87,76.51,2024,July,20,4
HPC41003860,OM FUEL STATION,JAPLA - RETAIL,JH-PALAMAU,Jharkhand,HPCL,D1,24.35,84.18,2024,July,56,98
HPC41003861,M/s TRIPUTI HP CENTRE  JASPUR,JASPUR - RETAIL,HR-PANCHKULA,Haryana,HPCL,C,30.49,76.96,2024,July,12,24
HPC41003862,M/s JOYGURU PETROL PUMP  TEGERIA,TEGERIA - RETAIL,WB-PASCHIM MEDINIPUR,West Bengal,HPCL,C,22.3,87.5,2024,July,40,92
HPC41003863,M/s SHRI KRISHAN FILLING STATION,PADLA - RETAIL,HR-KAITHAL,Haryana,HPCL,C,29.76,76.28,2024,July,12,24
HPC41003864,M/S  CHINMASTIKAY MULTI TRADING PVT,BOKARO - RETAIL,JH-BOKARO,Jharkhand,HPCL,-,0,0,2024,July,0,36
HPC41003865,M/s MOJI RAM FILLING STATION  ISRAN,PARDHANA - RETAIL,HR-PANIPAT,Haryana,HPCL,D1,29.27,76.83,2024,July,25,143
HPC41003866,M/s SUBHANKAR FILLING STATION NALHA,KOTHATALA - RETAIL,WB-BIRBHUM,West Bengal,HPCL,C,24.29,87.81,2024,July,16,200
HPC41003867,M/s BALAJI FILLING STATION,SILAKERI - RETAIL,HR-JIND,Haryana,HPCL,D2,29.39,76.59,2024,July,20,40
HPC41003868,ROBINA FUELS,RANCHI - RETAIL,JH-RANCHI,Jharkhand,HPCL,C,23.31,85.41,2024,July,12,24
HPC41003869,M/s AMIT FILLING STATION  AJRANAKAL,AJRANA KALAN - RETAIL,HR-KURUKSHETRA,Haryana,HPCL,C,30.09,76.77,2024,July,27,27
HPC41003870,M/S SAMANTA FUEL STATION  BIRUDIHA,DURGAPUR - RETAIL,WB-PASCHIM BARDHAMAN,West Bengal,HPCL,D1,23.47,87.42,2024,July,24,288
HPC41003871,M/s SETHI FUEL HUB  SUJRA,BABAIN - RETAIL,HR-KURUKSHETRA,Haryana,HPCL,D2,30.1,76.95,2024,July,28,20
HPC41003872,M/s UDAY PRATAP FILLING STATION  BA,ADHOYA - RETAIL,HR-AMBALA,Haryana,HPCL,C,30.17,77.03,2024,July,16,8
HPC41003873,ADHOC SIDDHARTH ENERGY  BHARAGORA,BAHARAGORA - RETAIL,JH-SINGHBHUM EAST,Jharkhand,HPCL,D1,22.29,86.8,2024,July,0,0
HPC41003874,M/s SAINATH FUEL STATION  CHAKTURIA,KHARAGPUR - RETAIL,WB-PASCHIM MEDINIPUR,West Bengal,HPCL,D1,22.28,87.39,2024,July,16,200
HPC41003875,M/s SHRI BALAJI FILLING STATION,JUNDLA - RETAIL,HR-KARNAL,Haryana,HPCL,C,29.57,76.79,2024,July,12,12
HPC41003876,M/s PACHAR FILLING STATION,MUKLAN - RETAIL,HR-HISSAR,Haryana,HPCL,C,29.04,75.56,2024,July,4,44
HPC41003877,M/s OM  NARAYAN FILLING STATION BER,BEHRAMPUR - RETAIL,WB-MURSHIDABAD,West Bengal,HPCL,C,24.11,88.27,2024,July,88,72
HPC41003878,M/s GEETA KASTURI FILLING STATION,NARWALA OML - RETAIL,HR-JIND,Haryana,HPCL,C,29.8,76.19,2024,July,12,12
HPC41003879,ADHCO MARY FILLING STATION DUMKA,DUMKA - RETAIL,JH-DUMKA,Jharkhand,HPCL,-,24.27,87.25,2024,July,0,0
HPC41003880,M/s BRAR FILLING STATION,MALLEKHAN - RETAIL,HR-SIRSA,Haryana,HPCL,D2,29.43,74.89,2024,July,24,120
HPC41003881,BABA PETROL PUMP,MESHRA - RETAIL,JH-RANCHI,Jharkhand,HPCL,C,23.51,85.42,2024,July,16,44
HPC41003882,M/s SWASTIKA FUEL CENTER SEKHDIGHI,MORGRAM - RETAIL,WB-MURSHIDABAD,West Bengal,HPCL,D1,24.36,88.04,2024,July,15,185
HPC41003883,M/s CHEEMA FILLING STATION,SAMANA BAHU - RETAIL,HR-KARNAL,Haryana,HPCL,D1,29.9,76.92,2024,July,16,32
HPC41003884,SUPRIYA FUEL CENTER,RANCHI - RETAIL,JH-RANCHI,Jharkhand,HPCL,C,23.51,85.27,2024,July,24,12
HPC41003885,M/s KAMAL PETRO,GAIBIPUR - RETAIL,HR-HISSAR,Haryana,HPCL,D1,29.45,75.92,2024,July,16,164
HPC41003886,M/s AMAN FILLING STATION,ASTI - RETAIL,WB-PASCHIM MEDINIPUR,West Bengal,HPCL,D2,22.03,87.4,2024,July,28,68
HPC41003887,M/s  JHAJHRIA FILLING STATION,AGROHA - RETAIL,HR-HISSAR,Haryana,HPCL,D1,29.29,75.65,2024,July,36,108
HPC41003888,M/s  ENGINEERS ENTERPRISES,THEHMUKERIAN - RETAIL,HR-KAITHAL,Haryana,HPCL,D2,29.87,76.36,2024,July,24,36
HPC41003889,S  CHANDRA FUELS,KANAKLOYA - RETAIL,JH-KHUNTI,Jharkhand,HPCL,D2,23.01,85.18,2024,July,25.5,46.5
HPC41003890,M/S GUHA FILLING STATION  KONARPARA,KONARPARA - RETAIL,WB-PURBA BARDHAMAN,West Bengal,HPCL,D1,23.2,87.99,2024,July,18,127
HPC41003891,M/s SARDAR GIAN SINGH BOLA PETROLEU,SIHNAL - RETAIL,HR-FATEHABAD,Haryana,HPCL,C,29.64,75.58,2024,July,4,8
HPC41003893,RAGHO PETROL PUMP,KOLEBIERA - RETAIL,JH-SIMDEGA,Jharkhand,HPCL,C,22.5,85.03,2024,July,50,114
HPC41003894,M/s SANKAT MOCHAN FILLING STATION,JULANA - RETAIL,HR-JIND,Haryana,HPCL,D1,29.15,76.4,2024,July,64,248
HPC41003896,M/s MIRA BIBI,SAJURE MORE - RETAIL,WB-MURSHIDABAD,West Bengal,HPCL,D1,24.62,88,2024,July,55,165
HPC41003897,M/s  AMRIT FILLING STATION  GHORONP,GHORON - RETAIL,HR-YAMUNA NAGAR,Haryana,HPCL,C,30.09,77.41,2024,July,15,33
HPC41003899,MS/HSD KRISHNA KANHAIYA HP,JAMTARA - RETAIL,JH-GIRIDIH,Jharkhand,HPCL,C,23.95,86.02,2024,July,24,48
HPC41003900,M/s  JAGDAMBEY FILLING STATION,DHAND - RETAIL,HR-KAITHAL,Haryana,HPCL,C,29.89,76.66,2024,July,12,12
HPC41003901,M/S KUNUR SERVICE STATION  DOMRA,DOMRA - RETAIL,WB-PASCHIM BARDHAMAN,West Bengal,HPCL,D2,23.53,87.46,2024,July,5,295
HPC41003903,M/s  AYUSH FILLING STATION,KAITHAL CHANDHANA (4813) - RETAIL,HR-KAITHAL,Haryana,HPCL,C,29.76,76.38,2024,July,12,24
HPC41003904,M/s SHIV SHAKTI PETROLEUM,KAITHAL - RETAIL,HR-KAITHAL,Haryana,HPCL,C,29.83,76.47,2024,July,0,0
HPC41003906,MS/HSD KUSHWAHA HP,MADHUPUR - RETAIL,JH-DEOGHAR,Jharkhand,HPCL,C,24.28,86.63,2024,July,110,40
HPC41003907,M/s SANDEEP FUEL POINT  NIWARSI,LADWA - RETAIL,HR-KURUKSHETRA,Haryana,HPCL,D2,29.99,77.03,2024,July,20,64
HPC41003908,M/s GHOSH REFILLING STATION,MUKUNDAPUR - RETAIL,WB-MURSHIDABAD,West Bengal,HPCL,D1,24.15,88.19,2024,July,24,140
HPC41003910,M/s HIMWAY FILLING STATION  AHMEDPU,NARAINGARH - RETAIL,HR-AMBALA,Haryana,HPCL,D1,30.47,77.11,2024,July,48,36
HPC41003911,BABA HP,DEOGHAR - RETAIL,JH-DEOGHAR,Jharkhand,HPCL,D1,24.51,86.8,2024,July,76.5,145.5
HPC41003913,M/S ANKUR FILLING STATION,HISSAR - RETAIL,HR-HISSAR,Haryana,HPCL,D1,29.1,75.84,2024,July,40,154
HPC41003914,M/s PICNIC FILLIG STATION  JAGWESWA,SALBONI - RETAIL,WB-PASCHIM MEDINIPUR,West Bengal,HPCL,D1,22.55,87.33,2024,July,12,156
HPC41003915,M/s DAHIYA FILLING STATION,KEORAK - RETAIL,HR-KAITHAL,Haryana,HPCL,C,29.9,76.46,2024,July,12,36
HPC41003917,M/s MAHADEV HP,DUMKA - RETAIL,JH-DUMKA,Jharkhand,HPCL,D2,24.34,87.21,2024,July,55,239
HPC41003918,M/s DHANTORI HIGHWAY JUNCTION  DHAN,RAMGARH - RETAIL,HR-KURUKSHETRA,Haryana,HPCL,D1,30.08,76.88,2024,July,35,85
HPC41003920,M/S R  J  FUEL SERVICE STATION  DUR,DURGAPUR - RETAIL,WB-PASCHIM BARDHAMAN,West Bengal,HPCL,B,23.51,87.31,2024,July,57,239
HPC41003921,M/S BHANGU PETRO POINT,JEEVAN NAGAR - RETAIL,HR-SIRSA,Haryana,HPCL,C,29.53,74.74,2024,July,32,52
HPC41003923,M/s LAXMI FUEL STATION  KESURA,NAWADAH - RETAIL,JH-HAZARIBAGH,Jharkhand,HPCL,D1,24,85.44,2024,July,99.5,114.5
HPC41003924,M/s MAHADEV FILLING STATION  JULANA,JULANA - RETAIL,HR-JIND,Haryana,HPCL,D1,29.1,76.42,2024,July,30,70
HPC41003926,M/s MAA DAKSHINA KALI FILLING STATI,PASCHIMCHAK - RETAIL,WB-PASCHIM MEDINIPUR,West Bengal,HPCL,C,22.25,87.66,2024,July,68,88
HPC41003929,MAA TARA HP,SURIYA OML - RETAIL,JH-GIRIDIH,Jharkhand,HPCL,C,24.16,86.07,2024,July,40,44
HPC41003930,M/s RAJKUL FILLING STATION,MUNAK-OML - RETAIL,HR-KARNAL,Haryana,HPCL,C,29.6,76.92,2024,July,4,44
HPC41003931,KUNWAR FUELS,RANCHI - RETAIL,JH-RANCHI,Jharkhand,HPCL,C,23.51,85.27,2024,July,42,56
HPC41003933,M/s JHORAD FUELS,MOCHIWALI - RETAIL,HR-SIRSA,Haryana,HPCL,C,29.49,75.27,2024,July,16,20
HPC41003935,M/s OM FILLING STATION  BARARA,BARARA - RETAIL,HR-AMBALA,Haryana,HPCL,D2,30.23,77.05,2024,July,24,36
HPC41003937,M/s HP JAGRAM FILLING STATION  DURJ,UCHANA KHURD - RETAIL,HR-JIND,Haryana,HPCL,C,29.46,76.02,2024,July,19,93
HPC41003939,M/s SRI MARKENDESHWAR FUEL POINT  R,RADAUR OML - RETAIL,HR-YAMUNA NAGAR,Haryana,HPCL,D2,30.02,77.13,2024,July,31.5,112.5
HPC41003941,M/s JKB PETRO  TOHANA,TOHANA - RETAIL,HR-FATEHABAD,Haryana,HPCL,C,29.7,75.9,2024,July,36,48
HPC41003943,M/s CITY PETRO STATION,PANJUANA - RETAIL,HR-SIRSA,Haryana,HPCL,D1,29.64,74.98,2024,July,20,100
HPC41003945,M/s OBEROI FUELS  CHOLI,CHHACHHRAULI - RETAIL,HR-YAMUNA NAGAR,Haryana,HPCL,C,30.28,77.34,2024,July,30,30
HPC41003947,M/s LAKSHMI AUTO SERVICE  CHANDPUR,JAGADHRI - RETAIL,HR-YAMUNA NAGAR,Haryana,HPCL,C,30.14,77.27,2024,July,30,45
HPC41003949,M/s MODERN FILLING STATION,ASSANDH - RETAIL,HR-KARNAL,Haryana,HPCL,C,29.5,76.73,2024,July,24,72
HPC41003951,M/s S S FILLING STATION,KARNAL - RETAIL,HR-KARNAL,Haryana,HPCL,C,29.67,77.01,2024,July,56,28
HPC41003953,M/s MAA JAGDAMBA FUELS  TAMSABAD,TAMSABAD - RETAIL,HR-PANIPAT,Haryana,HPCL,D2,29.39,77.13,2024,July,40,86
HPC41003955,M/s BALA JI FILLING STATION,BASTARA - RETAIL,HR-KARNAL,Haryana,HPCL,C,29.59,77.01,2024,July,19,23
HPC41003957,M/s MANJEET FILLING STATION,ANDHERA KARNAL - RETAIL,HR-KARNAL,Haryana,HPCL,D1,29.6,77.1,2024,July,53,187
HPC41003959,MS/HSD G S FILLING STATION,KALKA - RETAIL,HR-PANCHKULA,Haryana,HPCL,C,30.85,76.88,2024,July,24,96
HPC41003961,M/s THE KAITHAL COOP SUGAR,KAITHAL - RETAIL,HR-KAITHAL,Haryana,HPCL,D2,29.79,76.46,2024,July,70,70
HPC41003966,M/S SRI LAKSHMI NARAYANA  PET BRPAL,BHAGAVANRAJPALAM - RETAIL,AP-BAPATLA,Andhra Pradesh (New),HPCL,D1,15.87,80.06,2024,July,15,17
HPC41003968,AMRUTHA ENTERPRISES,LEMALLE - RETAIL,AP-PALNADU,Andhra Pradesh (New),HPCL,D2,16.48,80.4,2024,July,50,50
HPC41003970,MS/HSD SREEJA ENTERPRISES,RAYAPUDI - RETAIL,AP-GUNTUR,Andhra Pradesh (New),HPCL,C,16.54,80.48,2024,July,119,91
HPC41003972,SRI SAI RAGHAVENDRA PETROLEUMS,GOTLAGATTU - RETAIL,AP-PRAKASAM,Andhra Pradesh (New),HPCL,D2,15.55,79.43,2024,July,12,36
HPC41003975,M/S VIGNESH SERVICE STATION KARAMCH,KARAMCHEDU - RETAIL,AP-BAPATLA,Andhra Pradesh (New),HPCL,D2,15.89,80.31,2024,July,33,51
HPC41003976,MSHSD A N  RANI PETROLEUMS ADDANKI,ADDANKI - RETAIL,AP-BAPATLA,Andhra Pradesh (New),HPCL,D2,15.82,79.97,2024,July,36,44
HPC41003979,B R  PETROLEUMS,KANDUKUR - RETAIL,AP-NELLORE,Andhra Pradesh (New),HPCL,C,15.2,79.9,2024,July,89,106
HPC41003981,MSHSD SAINADHA PETROLEUMS MADDIPADU,MADDIPADU - RETAIL,AP-PRAKASAM,Andhra Pradesh (New),HPCL,D1,15.63,80.02,2024,July,25,115
HPC41003983,M/s  TEJA SAI PETROLEUMS YERRAGONDA,YERRAGONDAPALEM - RETAIL,AP-PRAKASAM,Andhra Pradesh (New),HPCL,D2,16.04,79.31,2024,July,30,46
HPC41003987,MS/HSDSRI JYOTHI SWARUPA FILLING ST,IPURU - RETAIL,AP-PALNADU,Andhra Pradesh (New),HPCL,C,16.22,79.78,2024,July,20,28
HPC41003989,MS/HSD SRI BALAJI PETRO ZONE,GOLLAPALLI - RETAIL,AP-TIRUPATI,Andhra Pradesh (New),HPCL,D2,14.1,79.72,2024,July,20,52
HPC41003990,MSHSD SAMBHAVI OIL FLG STN ATMAKUR,ATMAKUR - RETAIL,AP-NELLORE,Andhra Pradesh (New),HPCL,C,14.63,79.62,2024,July,53,45
HPC41003993,MS/HSD PETRO EXPRESS,PEDAVADLAPUDI - RETAIL,AP-GUNTUR,Andhra Pradesh (New),HPCL,D2,16.41,80.62,2024,July,80,86
HPC41003995,M/s LEELA SAIERAM FS,MASULIPATNAM - RETAIL,AP-KRISHNA,Andhra Pradesh (New),HPCL,C,16.2,81.13,2024,July,14,12
HPC41003997,ARUNASRI FILLING STATION,VIJAYAWADA-AUTONAGAR - RETAIL,AP-NTR,Andhra Pradesh (New),HPCL,B,16.5,80.67,2024,July,229,438
HPC41003999,VENKATA DURGA FILLING STATION,DACHEPALLI - RETAIL,AP-PALNADU,Andhra Pradesh (New),HPCL,D2,16.6,79.73,2024,July,59,85
